<?xml version="1.0" encoding="UTF-8"?>
<GRDFCities>
<GRDFCity><CityId>2560</CityId><CityDepartment>08</CityDepartment><CityLatitudeDeg>49.58330154418945</CityLatitudeDeg><CityLongitudeDeg>4.349999904632568</CityLongitudeDeg><CityNameFull>Sery</CityNameFull><CityNameSimple>sery</CityNameSimple><CityNameSoundex>S600</CityNameSoundex><CityZipCode>08270</CityZipCode></GRFCity>
<GRDFCity><CityId>2816</CityId><CityDepartment>08</CityDepartment><CityLatitudeDeg>49.68330001831055</CityLatitudeDeg><CityLongitudeDeg>5.150000095367432</CityLongitudeDeg><CityNameFull>Messincourt</CityNameFull><CityNameSimple>messincourt</CityNameSimple><CityNameSoundex>M25263</CityNameSoundex><CityZipCode>08110</CityZipCode></GRFCity>
<GRDFCity><CityId>2561</CityId><CityDepartment>08</CityDepartment><CityLatitudeDeg>49.266700744628906</CityLatitudeDeg><CityLongitudeDeg>4.833330154418945</CityLongitudeDeg><CityNameFull>Autry</CityNameFull><CityNameSimple>autry</CityNameSimple><CityNameSoundex>A360</CityNameSoundex><CityZipCode>08250</CityZipCode></GRFCity>
<GRDFCity><CityId>2817</CityId><CityDepartment>08</CityDepartment><CityLatitudeDeg>49.43330001831055</CityLatitudeDeg><CityLongitudeDeg>4.283329963684082</CityLongitudeDeg><CityNameFull>Tagnon</CityNameFull><CityNameSimple>tagnon</CityNameSimple><CityNameSoundex>T250</CityNameSoundex><CityZipCode>08300</CityZipCode></GRFCity>
<GRDFCity><CityId>2562</CityId><CityDepartment>08</CityDepartment><CityLatitudeDeg>49.5</CityLatitudeDeg><CityLongitudeDeg>4.816669940948486</CityLongitudeDeg><CityNameFull>Petites-Armoises</CityNameFull><CityNameSimple>les petites armoises</CityNameSimple><CityNameSoundex>L2132652</CityNameSoundex><CityZipCode>08390</CityZipCode></GRFCity>
<GRDFCity><CityId>2818</CityId><CityDepartment>08</CityDepartment><CityLatitudeDeg>49.644798278808594</CityLatitudeDeg><CityLongitudeDeg>4.400559902191162</CityLongitudeDeg><CityNameFull>Grandchamp</CityNameFull><CityNameSimple>grandchamp</CityNameSimple><CityNameSoundex>G653251</CityNameSoundex><CityZipCode>08270</CityZipCode></GRFCity>
<GRDFCity><CityId>2563</CityId><CityDepartment>08</CityDepartment><CityLatitudeDeg>49.349998474121094</CityLatitudeDeg><CityLongitudeDeg>4.5</CityLongitudeDeg><CityNameFull>Machault</CityNameFull><CityNameSimple>machault</CityNameSimple><CityNameSoundex>M243</CityNameSoundex><CityZipCode>08310</CityZipCode></GRFCity>
<GRDFCity><CityId>2819</CityId><CityDepartment>08</CityDepartment><CityLatitudeDeg>49.66669845581055</CityLatitudeDeg><CityLongitudeDeg>4.949999809265137</CityLongitudeDeg><CityNameFull>Noyers-Pont-Maugis</CityNameFull><CityNameSimple>noyers pont maugis</CityNameSimple><CityNameSoundex>N6215352</CityNameSoundex><CityZipCode>08350</CityZipCode></GRFCity>
<GRDFCity><CityId>2564</CityId><CityDepartment>08</CityDepartment><CityLatitudeDeg>49.516700744628906</CityLatitudeDeg><CityLongitudeDeg>4.766670227050781</CityLongitudeDeg><CityNameFull>Le Chesne</CityNameFull><CityNameSimple>le chesne</CityNameSimple><CityNameSoundex>L250</CityNameSoundex><CityZipCode>08390</CityZipCode></GRFCity>
<GRDFCity><CityId>2820</CityId><CityDepartment>08</CityDepartment><CityLatitudeDeg>49.650001525878906</CityLatitudeDeg><CityLongitudeDeg>5.050000190734863</CityLongitudeDeg><CityNameFull>Mairy</CityNameFull><CityNameSimple>mairy</CityNameSimple><CityNameSoundex>M600</CityNameSoundex><CityZipCode>08140</CityZipCode></GRFCity>
<GRDFCity><CityId>2565</CityId><CityDepartment>08</CityDepartment><CityLatitudeDeg>50.00979995727539</CityLatitudeDeg><CityLongitudeDeg>4.705840110778809</CityLongitudeDeg><CityNameFull>Haybes</CityNameFull><CityNameSimple>haybes</CityNameSimple><CityNameSoundex>H120</CityNameSoundex><CityZipCode>08170</CityZipCode></GRFCity>
<GRDFCity><CityId>2821</CityId><CityDepartment>08</CityDepartment><CityLatitudeDeg>49.71670150756836</CityLatitudeDeg><CityLongitudeDeg>5.033329963684082</CityLongitudeDeg><CityNameFull>Villers-Cernay</CityNameFull><CityNameSimple>villers cernay</CityNameSimple><CityNameSoundex>V46265</CityNameSoundex><CityZipCode>08140</CityZipCode></GRFCity>
<GRDFCity><CityId>2566</CityId><CityDepartment>08</CityDepartment><CityLatitudeDeg>49.516700744628906</CityLatitudeDeg><CityLongitudeDeg>4.566669940948486</CityLongitudeDeg><CityNameFull>Alland'Huy-et-Sausseuil</CityNameFull><CityNameSimple>alland huy et sausseuil</CityNameSimple><CityNameSoundex>A45324</CityNameSoundex><CityZipCode>08130</CityZipCode></GRFCity>
<GRDFCity><CityId>2822</CityId><CityDepartment>08</CityDepartment><CityLatitudeDeg>49.58330154418945</CityLatitudeDeg><CityLongitudeDeg>4.61667013168335</CityLongitudeDeg><CityNameFull>Saint-Loup-Terrier</CityNameFull><CityNameSimple>saint loup terrier</CityNameSimple><CityNameSoundex>S534136</CityNameSoundex><CityZipCode>08130</CityZipCode></GRFCity>
<GRDFCity><CityId>2567</CityId><CityDepartment>08</CityDepartment><CityLatitudeDeg>49.70000076293945</CityLatitudeDeg><CityLongitudeDeg>4.416669845581055</CityLongitudeDeg><CityNameFull>Signy-l'Abbaye</CityNameFull><CityNameSimple>signy l abbaye</CityNameSimple><CityNameSoundex>S541</CityNameSoundex><CityZipCode>08460</CityZipCode></GRFCity>
<GRDFCity><CityId>2823</CityId><CityDepartment>08</CityDepartment><CityLatitudeDeg>49.33330154418945</CityLatitudeDeg><CityLongitudeDeg>4.699999809265137</CityLongitudeDeg><CityNameFull>Saint-Morel</CityNameFull><CityNameSimple>saint morel</CityNameSimple><CityNameSoundex>S53564</CityNameSoundex><CityZipCode>08400</CityZipCode></GRFCity>
<GRDFCity><CityId>2568</CityId><CityDepartment>08</CityDepartment><CityLatitudeDeg>49.31669998168945</CityLatitudeDeg><CityLongitudeDeg>4.5</CityLongitudeDeg><CityNameFull>Saint-Étienne-à-Arnes</CityNameFull><CityNameSimple>saint etienne a arnes</CityNameSimple><CityNameSoundex>S535652</CityNameSoundex><CityZipCode>08310</CityZipCode></GRFCity>
<GRDFCity><CityId>2824</CityId><CityDepartment>08</CityDepartment><CityLatitudeDeg>49.608299255371094</CityLatitudeDeg><CityLongitudeDeg>4.275000095367432</CityLongitudeDeg><CityNameFull>Chappes</CityNameFull><CityNameSimple>chappes</CityNameSimple><CityNameSoundex>C120</CityNameSoundex><CityZipCode>08220</CityZipCode></GRFCity>
<GRDFCity><CityId>2569</CityId><CityDepartment>08</CityDepartment><CityLatitudeDeg>49.53329849243164</CityLatitudeDeg><CityLongitudeDeg>4.900000095367432</CityLongitudeDeg><CityNameFull>Grandes-Armoises</CityNameFull><CityNameSimple>les grandes armoises</CityNameSimple><CityNameSoundex>L26532652</CityNameSoundex><CityZipCode>08390</CityZipCode></GRFCity>
<GRDFCity><CityId>2825</CityId><CityDepartment>08</CityDepartment><CityLatitudeDeg>49.29999923706055</CityLatitudeDeg><CityLongitudeDeg>4.666669845581055</CityLongitudeDeg><CityNameFull>Liry</CityNameFull><CityNameSimple>liry</CityNameSimple><CityNameSoundex>L600</CityNameSoundex><CityZipCode>08400</CityZipCode></GRFCity>
<GRDFCity><CityId>2570</CityId><CityDepartment>08</CityDepartment><CityLatitudeDeg>49.400001525878906</CityLatitudeDeg><CityLongitudeDeg>4.449999809265137</CityLongitudeDeg><CityNameFull>Ville-sur-Retourne</CityNameFull><CityNameSimple>ville sur retourne</CityNameSimple><CityNameSoundex>V426365</CityNameSoundex><CityZipCode>08310</CityZipCode></GRFCity>
<GRDFCity><CityId>2826</CityId><CityDepartment>08</CityDepartment><CityLatitudeDeg>49.29999923706055</CityLatitudeDeg><CityLongitudeDeg>4.400000095367432</CityLongitudeDeg><CityNameFull>Hauviné</CityNameFull><CityNameSimple>hauvine</CityNameSimple><CityNameSoundex>H150</CityNameSoundex><CityZipCode>08310</CityZipCode></GRFCity>
<GRDFCity><CityId>2571</CityId><CityDepartment>08</CityDepartment><CityLatitudeDeg>49.70000076293945</CityLatitudeDeg><CityLongitudeDeg>4.800000190734863</CityLongitudeDeg><CityNameFull>Nouvion-sur-Meuse</CityNameFull><CityNameSimple>nouvion sur meuse</CityNameSimple><CityNameSoundex>N152652</CityNameSoundex><CityZipCode>08160</CityZipCode></GRFCity>
<GRDFCity><CityId>2827</CityId><CityDepartment>08</CityDepartment><CityLatitudeDeg>49.59749984741211</CityLatitudeDeg><CityLongitudeDeg>4.324999809265137</CityLongitudeDeg><CityNameFull>Justine-Herbigny</CityNameFull><CityNameSimple>justine herbigny</CityNameSimple><CityNameSoundex>J356125</CityNameSoundex><CityZipCode>08270</CityZipCode></GRFCity>
<GRDFCity><CityId>2572</CityId><CityDepartment>08</CityDepartment><CityLatitudeDeg>49.58330154418945</CityLatitudeDeg><CityLongitudeDeg>5.183330059051514</CityLongitudeDeg><CityNameFull>Malandry</CityNameFull><CityNameSimple>malandry</CityNameSimple><CityNameSoundex>M4536</CityNameSoundex><CityZipCode>08370</CityZipCode></GRFCity>
<GRDFCity><CityId>2828</CityId><CityDepartment>08</CityDepartment><CityLatitudeDeg>49.81669998168945</CityLatitudeDeg><CityLongitudeDeg>4.566669940948486</CityLongitudeDeg><CityNameFull>Sormonne</CityNameFull><CityNameSimple>sormonne</CityNameSimple><CityNameSoundex>S650</CityNameSoundex><CityZipCode>08150</CityZipCode></GRFCity>
<GRDFCity><CityId>2573</CityId><CityDepartment>08</CityDepartment><CityLatitudeDeg>49.5</CityLatitudeDeg><CityLongitudeDeg>4.166669845581055</CityLongitudeDeg><CityNameFull>Gomont</CityNameFull><CityNameSimple>gomont</CityNameSimple><CityNameSoundex>G530</CityNameSoundex><CityZipCode>08190</CityZipCode></GRFCity>
<GRDFCity><CityId>2829</CityId><CityDepartment>08</CityDepartment><CityLatitudeDeg>49.400001525878906</CityLatitudeDeg><CityLongitudeDeg>4.650000095367432</CityLongitudeDeg><CityNameFull>Mars-sous-Bourcq</CityNameFull><CityNameSimple>mars sous bourcq</CityNameSimple><CityNameSoundex>M62162</CityNameSoundex><CityZipCode>08400</CityZipCode></GRFCity>
<GRDFCity><CityId>2574</CityId><CityDepartment>08</CityDepartment><CityLatitudeDeg>49.29999923706055</CityLatitudeDeg><CityLongitudeDeg>4.949999809265137</CityLongitudeDeg><CityNameFull>Cornay</CityNameFull><CityNameSimple>cornay</CityNameSimple><CityNameSoundex>C650</CityNameSoundex><CityZipCode>08250</CityZipCode></GRFCity>
<GRDFCity><CityId>2830</CityId><CityDepartment>08</CityDepartment><CityLatitudeDeg>49.45000076293945</CityLatitudeDeg><CityLongitudeDeg>4.216670036315918</CityLongitudeDeg><CityNameFull>Saint-Loup-en-Champagne</CityNameFull><CityNameSimple>saint loup en champagne</CityNameSimple><CityNameSoundex>S5341525125</CityNameSoundex><CityZipCode>08300</CityZipCode></GRFCity>
<GRDFCity><CityId>2575</CityId><CityDepartment>08</CityDepartment><CityLatitudeDeg>49.5</CityLatitudeDeg><CityLongitudeDeg>4.433330059051514</CityLongitudeDeg><CityNameFull>Doux</CityNameFull><CityNameSimple>doux</CityNameSimple><CityNameSoundex>D200</CityNameSoundex><CityZipCode>08300</CityZipCode></GRFCity>
<GRDFCity><CityId>2831</CityId><CityDepartment>08</CityDepartment><CityLatitudeDeg>49.83330154418945</CityLatitudeDeg><CityLongitudeDeg>4.483329772949219</CityLongitudeDeg><CityNameFull>Laval-Morency</CityNameFull><CityNameSimple>laval morency</CityNameSimple><CityNameSoundex>L145652</CityNameSoundex><CityZipCode>08150</CityZipCode></GRFCity>
<GRDFCity><CityId>2576</CityId><CityDepartment>08</CityDepartment><CityLatitudeDeg>49.63330078125</CityLatitudeDeg><CityLongitudeDeg>4.833330154418945</CityLongitudeDeg><CityNameFull>Omicourt</CityNameFull><CityNameSimple>omicourt</CityNameSimple><CityNameSoundex>O5263</CityNameSoundex><CityZipCode>08450</CityZipCode></GRFCity>
<GRDFCity><CityId>2832</CityId><CityDepartment>08</CityDepartment><CityLatitudeDeg>49.88330078125</CityLatitudeDeg><CityLongitudeDeg>4.283329963684082</CityLongitudeDeg><CityNameFull>Fligny</CityNameFull><CityNameSimple>fligny</CityNameSimple><CityNameSoundex>F425</CityNameSoundex><CityZipCode>08380</CityZipCode></GRFCity>
<GRDFCity><CityId>2577</CityId><CityDepartment>08</CityDepartment><CityLatitudeDeg>49.53329849243164</CityLatitudeDeg><CityLongitudeDeg>4.650000095367432</CityLongitudeDeg><CityNameFull>Tourteron</CityNameFull><CityNameSimple>tourteron</CityNameSimple><CityNameSoundex>T6365</CityNameSoundex><CityZipCode>08130</CityZipCode></GRFCity>
<GRDFCity><CityId>2833</CityId><CityDepartment>08</CityDepartment><CityLatitudeDeg>49.70000076293945</CityLatitudeDeg><CityLongitudeDeg>4.949999809265137</CityLongitudeDeg><CityNameFull>Sedan</CityNameFull><CityNameSimple>sedan</CityNameSimple><CityNameSoundex>S350</CityNameSoundex><CityZipCode>08200</CityZipCode></GRFCity>
<GRDFCity><CityId>2578</CityId><CityDepartment>08</CityDepartment><CityLatitudeDeg>49.29999923706055</CityLatitudeDeg><CityLongitudeDeg>4.449999809265137</CityLongitudeDeg><CityNameFull>Saint-Pierre-à-Arnes</CityNameFull><CityNameSimple>saint pierre a arnes</CityNameSimple><CityNameSoundex>S531652</CityNameSoundex><CityZipCode>08310</CityZipCode></GRFCity>
<GRDFCity><CityId>2834</CityId><CityDepartment>08</CityDepartment><CityLatitudeDeg>49.86640167236328</CityLatitudeDeg><CityLongitudeDeg>4.325839996337891</CityLongitudeDeg><CityNameFull>Neuville-lez-Beaulieu</CityNameFull><CityNameSimple>neuville lez beaulieu</CityNameSimple><CityNameSoundex>N14214</CityNameSoundex><CityZipCode>08380</CityZipCode></GRFCity>
<GRDFCity><CityId>2579</CityId><CityDepartment>08</CityDepartment><CityLatitudeDeg>50.13330078125</CityLatitudeDeg><CityLongitudeDeg>4.816669940948486</CityLongitudeDeg><CityNameFull>Givet</CityNameFull><CityNameSimple>givet</CityNameSimple><CityNameSoundex>G130</CityNameSoundex><CityZipCode>08600</CityZipCode></GRFCity>
<GRDFCity><CityId>2835</CityId><CityDepartment>08</CityDepartment><CityLatitudeDeg>49.733299255371094</CityLatitudeDeg><CityLongitudeDeg>4.650000095367432</CityLongitudeDeg><CityNameFull>Warnécourt</CityNameFull><CityNameSimple>warnecourt</CityNameSimple><CityNameSoundex>W65263</CityNameSoundex><CityZipCode>08090</CityZipCode></GRFCity>
<GRDFCity><CityId>2580</CityId><CityDepartment>08</CityDepartment><CityLatitudeDeg>49.594200134277344</CityLatitudeDeg><CityLongitudeDeg>4.6702799797058105</CityLongitudeDeg><CityNameFull>Baâlons</CityNameFull><CityNameSimple>baalons</CityNameSimple><CityNameSoundex>B452</CityNameSoundex><CityZipCode>08430</CityZipCode></GRFCity>
<GRDFCity><CityId>2836</CityId><CityDepartment>08</CityDepartment><CityLatitudeDeg>49.81669998168945</CityLatitudeDeg><CityLongitudeDeg>4.583330154418945</CityLongitudeDeg><CityNameFull>Lonny</CityNameFull><CityNameSimple>lonny</CityNameSimple><CityNameSoundex>L500</CityNameSoundex><CityZipCode>08150</CityZipCode></GRFCity>
<GRDFCity><CityId>2581</CityId><CityDepartment>08</CityDepartment><CityLatitudeDeg>49.75</CityLatitudeDeg><CityLongitudeDeg>4.550000190734863</CityLongitudeDeg><CityNameFull>Clavy-Warby</CityNameFull><CityNameSimple>clavy warby</CityNameSimple><CityNameSoundex>C4161</CityNameSoundex><CityZipCode>08560</CityZipCode></GRFCity>
<GRDFCity><CityId>2837</CityId><CityDepartment>08</CityDepartment><CityLatitudeDeg>49.599998474121094</CityLatitudeDeg><CityLongitudeDeg>4.783329963684082</CityLongitudeDeg><CityNameFull>Vendresse</CityNameFull><CityNameSimple>vendresse</CityNameSimple><CityNameSoundex>V5362</CityNameSoundex><CityZipCode>08160</CityZipCode></GRFCity>
<GRDFCity><CityId>2582</CityId><CityDepartment>08</CityDepartment><CityLatitudeDeg>49.71670150756836</CityLatitudeDeg><CityLongitudeDeg>4.5</CityLongitudeDeg><CityNameFull>Thin-le-Moutier</CityNameFull><CityNameSimple>thin le moutier</CityNameSimple><CityNameSoundex>T54536</CityNameSoundex><CityZipCode>08460</CityZipCode></GRFCity>
<GRDFCity><CityId>2838</CityId><CityDepartment>08</CityDepartment><CityLatitudeDeg>49.733299255371094</CityLatitudeDeg><CityLongitudeDeg>4.75</CityLongitudeDeg><CityNameFull>Villers-Semeuse</CityNameFull><CityNameSimple>villers semeuse</CityNameSimple><CityNameSoundex>V46252</CityNameSoundex><CityZipCode>08000</CityZipCode></GRFCity>
<GRDFCity><CityId>2583</CityId><CityDepartment>08</CityDepartment><CityLatitudeDeg>49.483299255371094</CityLatitudeDeg><CityLongitudeDeg>4.483329772949219</CityLongitudeDeg><CityNameFull>Ambly-Fleury</CityNameFull><CityNameSimple>ambly fleury</CityNameSimple><CityNameSoundex>A514146</CityNameSoundex><CityZipCode>08130</CityZipCode></GRFCity>
<GRDFCity><CityId>2839</CityId><CityDepartment>08</CityDepartment><CityLatitudeDeg>49.70000076293945</CityLatitudeDeg><CityLongitudeDeg>4.849999904632568</CityLongitudeDeg><CityNameFull>Vrigne-Meuse</CityNameFull><CityNameSimple>vrigne meuse</CityNameSimple><CityNameSoundex>V6252</CityNameSoundex><CityZipCode>08350</CityZipCode></GRFCity>
<GRDFCity><CityId>2584</CityId><CityDepartment>08</CityDepartment><CityLatitudeDeg>49.83330154418945</CityLatitudeDeg><CityLongitudeDeg>4.466670036315918</CityLongitudeDeg><CityNameFull>Chilly</CityNameFull><CityNameSimple>chilly</CityNameSimple><CityNameSoundex>C400</CityNameSoundex><CityZipCode>08260</CityZipCode></GRFCity>
<GRDFCity><CityId>2840</CityId><CityDepartment>08</CityDepartment><CityLatitudeDeg>49.68330001831055</CityLatitudeDeg><CityLongitudeDeg>4.333330154418945</CityLongitudeDeg><CityNameFull>Montmeillant</CityNameFull><CityNameSimple>montmeillant</CityNameSimple><CityNameSoundex>M35453</CityNameSoundex><CityZipCode>08220</CityZipCode></GRFCity>
<GRDFCity><CityId>2585</CityId><CityDepartment>08</CityDepartment><CityLatitudeDeg>49.54999923706055</CityLatitudeDeg><CityLongitudeDeg>4.349999904632568</CityLongitudeDeg><CityNameFull>Arnicourt</CityNameFull><CityNameSimple>arnicourt</CityNameSimple><CityNameSoundex>A65263</CityNameSoundex><CityZipCode>08300</CityZipCode></GRFCity>
<GRDFCity><CityId>2841</CityId><CityDepartment>08</CityDepartment><CityLatitudeDeg>49.70000076293945</CityLatitudeDeg><CityLongitudeDeg>4.699999809265137</CityLongitudeDeg><CityNameFull>Boulzicourt</CityNameFull><CityNameSimple>boulzicourt</CityNameSimple><CityNameSoundex>B4263</CityNameSoundex><CityZipCode>08410</CityZipCode></GRFCity>
<GRDFCity><CityId>2586</CityId><CityDepartment>08</CityDepartment><CityLatitudeDeg>49.733299255371094</CityLatitudeDeg><CityLongitudeDeg>4.933330059051514</CityLongitudeDeg><CityNameFull>Saint-Menges</CityNameFull><CityNameSimple>saint menges</CityNameSimple><CityNameSoundex>S5352</CityNameSoundex><CityZipCode>08200</CityZipCode></GRFCity>
<GRDFCity><CityId>2842</CityId><CityDepartment>08</CityDepartment><CityLatitudeDeg>49.63330078125</CityLatitudeDeg><CityLongitudeDeg>4.666669845581055</CityLongitudeDeg><CityNameFull>La Horgne</CityNameFull><CityNameSimple>la horgne</CityNameSimple><CityNameSoundex>L625</CityNameSoundex><CityZipCode>08430</CityZipCode></GRFCity>
<GRDFCity><CityId>2587</CityId><CityDepartment>08</CityDepartment><CityLatitudeDeg>49.75</CityLatitudeDeg><CityLongitudeDeg>4.816669940948486</CityLongitudeDeg><CityNameFull>Issancourt-et-Rumel</CityNameFull><CityNameSimple>issancourt et rumel</CityNameSimple><CityNameSoundex>I25263654</CityNameSoundex><CityZipCode>08440</CityZipCode></GRFCity>
<GRDFCity><CityId>2843</CityId><CityDepartment>08</CityDepartment><CityLatitudeDeg>49.46670150756836</CityLatitudeDeg><CityLongitudeDeg>4.800000190734863</CityLongitudeDeg><CityNameFull>Noirval</CityNameFull><CityNameSimple>noirval</CityNameSimple><CityNameSoundex>N614</CityNameSoundex><CityZipCode>08400</CityZipCode></GRFCity>
<GRDFCity><CityId>2588</CityId><CityDepartment>08</CityDepartment><CityLatitudeDeg>49.483299255371094</CityLatitudeDeg><CityLongitudeDeg>4.166669845581055</CityLongitudeDeg><CityNameFull>Aire</CityNameFull><CityNameSimple>aire</CityNameSimple><CityNameSoundex>A600</CityNameSoundex><CityZipCode>08190</CityZipCode></GRFCity>
<GRDFCity><CityId>2844</CityId><CityDepartment>08</CityDepartment><CityLatitudeDeg>49.43330001831055</CityLatitudeDeg><CityLongitudeDeg>4.75</CityLongitudeDeg><CityNameFull>Ballay</CityNameFull><CityNameSimple>ballay</CityNameSimple><CityNameSoundex>B400</CityNameSoundex><CityZipCode>08400</CityZipCode></GRFCity>
<GRDFCity><CityId>2589</CityId><CityDepartment>08</CityDepartment><CityLatitudeDeg>49.400001525878906</CityLatitudeDeg><CityLongitudeDeg>4.416669845581055</CityLongitudeDeg><CityNameFull>Bignicourt</CityNameFull><CityNameSimple>bignicourt</CityNameSimple><CityNameSoundex>B25263</CityNameSoundex><CityZipCode>08310</CityZipCode></GRFCity>
<GRDFCity><CityId>2845</CityId><CityDepartment>08</CityDepartment><CityLatitudeDeg>49.43330001831055</CityLatitudeDeg><CityLongitudeDeg>4.716670036315918</CityLongitudeDeg><CityNameFull>Vandy</CityNameFull><CityNameSimple>vandy</CityNameSimple><CityNameSoundex>V530</CityNameSoundex><CityZipCode>08400</CityZipCode></GRFCity>
<GRDFCity><CityId>2590</CityId><CityDepartment>08</CityDepartment><CityLatitudeDeg>49.68330001831055</CityLatitudeDeg><CityLongitudeDeg>5.033329963684082</CityLongitudeDeg><CityNameFull>Rubécourt-et-Lamécourt</CityNameFull><CityNameSimple>rubecourt et lamecourt</CityNameSimple><CityNameSoundex>R126345263</CityNameSoundex><CityZipCode>08140</CityZipCode></GRFCity>
<GRDFCity><CityId>2846</CityId><CityDepartment>08</CityDepartment><CityLatitudeDeg>49.449501037597656</CityLatitudeDeg><CityLongitudeDeg>4.350560188293457</CityLongitudeDeg><CityNameFull>Perthes</CityNameFull><CityNameSimple>perthes</CityNameSimple><CityNameSoundex>P632</CityNameSoundex><CityZipCode>08300</CityZipCode></GRFCity>
<GRDFCity><CityId>2591</CityId><CityDepartment>08</CityDepartment><CityLatitudeDeg>49.31669998168945</CityLatitudeDeg><CityLongitudeDeg>4.916669845581055</CityLongitudeDeg><CityNameFull>Marcq</CityNameFull><CityNameSimple>marcq</CityNameSimple><CityNameSoundex>M620</CityNameSoundex><CityZipCode>08250</CityZipCode></GRFCity>
<GRDFCity><CityId>2847</CityId><CityDepartment>08</CityDepartment><CityLatitudeDeg>49.53329849243164</CityLatitudeDeg><CityLongitudeDeg>4.333330154418945</CityLongitudeDeg><CityNameFull>Sorbon</CityNameFull><CityNameSimple>sorbon</CityNameSimple><CityNameSoundex>S615</CityNameSoundex><CityZipCode>08300</CityZipCode></GRFCity>
<GRDFCity><CityId>2592</CityId><CityDepartment>08</CityDepartment><CityLatitudeDeg>49.53329849243164</CityLatitudeDeg><CityLongitudeDeg>4.25</CityLongitudeDeg><CityNameFull>Château-Porcien</CityNameFull><CityNameSimple>chateau porcien</CityNameSimple><CityNameSoundex>C31625</CityNameSoundex><CityZipCode>08360</CityZipCode></GRFCity>
<GRDFCity><CityId>2848</CityId><CityDepartment>08</CityDepartment><CityLatitudeDeg>49.33330154418945</CityLatitudeDeg><CityLongitudeDeg>4.86667013168335</CityLongitudeDeg><CityNameFull>Grandpré</CityNameFull><CityNameSimple>grandpre</CityNameSimple><CityNameSoundex>G65316</CityNameSoundex><CityZipCode>08250</CityZipCode></GRFCity>
<GRDFCity><CityId>2593</CityId><CityDepartment>08</CityDepartment><CityLatitudeDeg>49.66669845581055</CityLatitudeDeg><CityLongitudeDeg>5.050000190734863</CityLongitudeDeg><CityNameFull>Douzy</CityNameFull><CityNameSimple>douzy</CityNameSimple><CityNameSoundex>D200</CityNameSoundex><CityZipCode>08140</CityZipCode></GRFCity>
<GRDFCity><CityId>2849</CityId><CityDepartment>08</CityDepartment><CityLatitudeDeg>49.58330154418945</CityLatitudeDeg><CityLongitudeDeg>5.266670227050781</CityLongitudeDeg><CityNameFull>Margut</CityNameFull><CityNameSimple>margut</CityNameSimple><CityNameSoundex>M623</CityNameSoundex><CityZipCode>08370</CityZipCode></GRFCity>
<GRDFCity><CityId>2594</CityId><CityDepartment>08</CityDepartment><CityLatitudeDeg>49.41669845581055</CityLatitudeDeg><CityLongitudeDeg>4.949999809265137</CityLongitudeDeg><CityNameFull>Buzancy</CityNameFull><CityNameSimple>buzancy</CityNameSimple><CityNameSoundex>B252</CityNameSoundex><CityZipCode>08240</CityZipCode></GRFCity>
<GRDFCity><CityId>2850</CityId><CityDepartment>08</CityDepartment><CityLatitudeDeg>50.099998474121094</CityLatitudeDeg><CityLongitudeDeg>4.8082499504089355</CityLongitudeDeg><CityNameFull>Chooz</CityNameFull><CityNameSimple>chooz</CityNameSimple><CityNameSoundex>C000</CityNameSoundex><CityZipCode>08600</CityZipCode></GRFCity>
<GRDFCity><CityId>2595</CityId><CityDepartment>08</CityDepartment><CityLatitudeDeg>49.81869888305664</CityLatitudeDeg><CityLongitudeDeg>4.401390075683594</CityLongitudeDeg><CityNameFull>Flaignes-Havys</CityNameFull><CityNameSimple>flaignes havys</CityNameSimple><CityNameSoundex>F425212</CityNameSoundex><CityZipCode>08260</CityZipCode></GRFCity>
<GRDFCity><CityId>2851</CityId><CityDepartment>08</CityDepartment><CityLatitudeDeg>49.400001525878906</CityLatitudeDeg><CityLongitudeDeg>4.933330059051514</CityLongitudeDeg><CityNameFull>Thénorgues</CityNameFull><CityNameSimple>thenorgues</CityNameSimple><CityNameSoundex>T562</CityNameSoundex><CityZipCode>08240</CityZipCode></GRFCity>
<GRDFCity><CityId>2596</CityId><CityDepartment>08</CityDepartment><CityLatitudeDeg>49.766700744628906</CityLatitudeDeg><CityLongitudeDeg>4.75</CityLongitudeDeg><CityNameFull>Saint-Laurent</CityNameFull><CityNameSimple>saint laurent</CityNameSimple><CityNameSoundex>S534653</CityNameSoundex><CityZipCode>08090</CityZipCode></GRFCity>
<GRDFCity><CityId>2852</CityId><CityDepartment>08</CityDepartment><CityLatitudeDeg>49.900001525878906</CityLatitudeDeg><CityLongitudeDeg>4.283329963684082</CityLongitudeDeg><CityNameFull>Signy-le-Petit</CityNameFull><CityNameSimple>signy le petit</CityNameSimple><CityNameSoundex>S5413</CityNameSoundex><CityZipCode>08380</CityZipCode></GRFCity>
<GRDFCity><CityId>2597</CityId><CityDepartment>08</CityDepartment><CityLatitudeDeg>49.53329849243164</CityLatitudeDeg><CityLongitudeDeg>4.400000095367432</CityLongitudeDeg><CityNameFull>Bertoncourt</CityNameFull><CityNameSimple>bertoncourt</CityNameSimple><CityNameSoundex>B635263</CityNameSoundex><CityZipCode>08300</CityZipCode></GRFCity>
<GRDFCity><CityId>2853</CityId><CityDepartment>08</CityDepartment><CityLatitudeDeg>49.56669998168945</CityLatitudeDeg><CityLongitudeDeg>5.233329772949219</CityLongitudeDeg><CityNameFull>La Ferté-sur-Chiers</CityNameFull><CityNameSimple>la ferte sur chiers</CityNameSimple><CityNameSoundex>L16326262</CityNameSoundex><CityZipCode>08370</CityZipCode></GRFCity>
<GRDFCity><CityId>2598</CityId><CityDepartment>08</CityDepartment><CityLatitudeDeg>49.71670150756836</CityLatitudeDeg><CityLongitudeDeg>4.983329772949219</CityLongitudeDeg><CityNameFull>Givonne</CityNameFull><CityNameSimple>givonne</CityNameSimple><CityNameSoundex>G150</CityNameSoundex><CityZipCode>08200</CityZipCode></GRFCity>
<GRDFCity><CityId>2854</CityId><CityDepartment>08</CityDepartment><CityLatitudeDeg>49.765899658203125</CityLatitudeDeg><CityLongitudeDeg>4.609169960021973</CityLongitudeDeg><CityNameFull>Sury</CityNameFull><CityNameSimple>sury</CityNameSimple><CityNameSoundex>S600</CityNameSoundex><CityZipCode>08090</CityZipCode></GRFCity>
<GRDFCity><CityId>2599</CityId><CityDepartment>08</CityDepartment><CityLatitudeDeg>49.5</CityLatitudeDeg><CityLongitudeDeg>4.083330154418945</CityLongitudeDeg><CityNameFull>Villers-devant-le-Thour</CityNameFull><CityNameSimple>villers devant le thour</CityNameSimple><CityNameSoundex>V4623153436</CityNameSoundex><CityZipCode>08190</CityZipCode></GRFCity>
<GRDFCity><CityId>2855</CityId><CityDepartment>08</CityDepartment><CityLatitudeDeg>49.43330001831055</CityLatitudeDeg><CityLongitudeDeg>4.683330059051514</CityLongitudeDeg><CityNameFull>Vrizy</CityNameFull><CityNameSimple>vrizy</CityNameSimple><CityNameSoundex>V620</CityNameSoundex><CityZipCode>08400</CityZipCode></GRFCity>
<GRDFCity><CityId>2600</CityId><CityDepartment>08</CityDepartment><CityLatitudeDeg>50.125</CityLatitudeDeg><CityLongitudeDeg>4.775000095367432</CityLongitudeDeg><CityNameFull>Foisches</CityNameFull><CityNameSimple>foisches</CityNameSimple><CityNameSoundex>F200</CityNameSoundex><CityZipCode>08600</CityZipCode></GRFCity>
<GRDFCity><CityId>2856</CityId><CityDepartment>08</CityDepartment><CityLatitudeDeg>49.766700744628906</CityLatitudeDeg><CityLongitudeDeg>4.466670036315918</CityLongitudeDeg><CityNameFull>Vaux-Villaine</CityNameFull><CityNameSimple>vaux villaine</CityNameSimple><CityNameSoundex>V2145</CityNameSoundex><CityZipCode>08150</CityZipCode></GRFCity>
<GRDFCity><CityId>2601</CityId><CityDepartment>08</CityDepartment><CityLatitudeDeg>49.79999923706055</CityLatitudeDeg><CityLongitudeDeg>4.599999904632568</CityLongitudeDeg><CityNameFull>Ham-les-Moines</CityNameFull><CityNameSimple>ham les moines</CityNameSimple><CityNameSoundex>H54252</CityNameSoundex><CityZipCode>08090</CityZipCode></GRFCity>
<GRDFCity><CityId>2857</CityId><CityDepartment>08</CityDepartment><CityLatitudeDeg>49.43330001831055</CityLatitudeDeg><CityLongitudeDeg>4.449999809265137</CityLongitudeDeg><CityNameFull>Ménil-Annelles</CityNameFull><CityNameSimple>menil annelles</CityNameSimple><CityNameSoundex>M4542</CityNameSoundex><CityZipCode>08310</CityZipCode></GRFCity>
<GRDFCity><CityId>2602</CityId><CityDepartment>08</CityDepartment><CityLatitudeDeg>49.66669845581055</CityLatitudeDeg><CityLongitudeDeg>4.36667013168335</CityLongitudeDeg><CityNameFull>Lalobbe</CityNameFull><CityNameSimple>lalobbe</CityNameSimple><CityNameSoundex>L100</CityNameSoundex><CityZipCode>08460</CityZipCode></GRFCity>
<GRDFCity><CityId>2858</CityId><CityDepartment>08</CityDepartment><CityLatitudeDeg>49.66669845581055</CityLatitudeDeg><CityLongitudeDeg>4.650000095367432</CityLongitudeDeg><CityNameFull>Yvernaumont</CityNameFull><CityNameSimple>yvernaumont</CityNameSimple><CityNameSoundex>Y1653</CityNameSoundex><CityZipCode>08430</CityZipCode></GRFCity>
<GRDFCity><CityId>2603</CityId><CityDepartment>08</CityDepartment><CityLatitudeDeg>49.5</CityLatitudeDeg><CityLongitudeDeg>4.933330059051514</CityLongitudeDeg><CityNameFull>Oches</CityNameFull><CityNameSimple>oches</CityNameSimple><CityNameSoundex>O200</CityNameSoundex><CityZipCode>08240</CityZipCode></GRFCity>
<GRDFCity><CityId>2859</CityId><CityDepartment>08</CityDepartment><CityLatitudeDeg>49.54999923706055</CityLatitudeDeg><CityLongitudeDeg>4.733329772949219</CityLongitudeDeg><CityNameFull>Louvergny</CityNameFull><CityNameSimple>louvergny</CityNameSimple><CityNameSoundex>L1625</CityNameSoundex><CityZipCode>08390</CityZipCode></GRFCity>
<GRDFCity><CityId>2604</CityId><CityDepartment>08</CityDepartment><CityLatitudeDeg>49.33330154418945</CityLatitudeDeg><CityLongitudeDeg>4.650000095367432</CityLongitudeDeg><CityNameFull>Mont-Saint-Martin</CityNameFull><CityNameSimple>mont saint martin</CityNameSimple><CityNameSoundex>M32535635</CityNameSoundex><CityZipCode>08400</CityZipCode></GRFCity>
<GRDFCity><CityId>2860</CityId><CityDepartment>08</CityDepartment><CityLatitudeDeg>49.54999923706055</CityLatitudeDeg><CityLongitudeDeg>4.916669845581055</CityLongitudeDeg><CityNameFull>Stonne</CityNameFull><CityNameSimple>stonne</CityNameSimple><CityNameSoundex>S350</CityNameSoundex><CityZipCode>08390</CityZipCode></GRFCity>
<GRDFCity><CityId>2605</CityId><CityDepartment>08</CityDepartment><CityLatitudeDeg>49.650001525878906</CityLatitudeDeg><CityLongitudeDeg>5.150000095367432</CityLongitudeDeg><CityNameFull>Osnes</CityNameFull><CityNameSimple>osnes</CityNameSimple><CityNameSoundex>O252</CityNameSoundex><CityZipCode>08110</CityZipCode></GRFCity>
<GRDFCity><CityId>2861</CityId><CityDepartment>08</CityDepartment><CityLatitudeDeg>49.583900451660156</CityLatitudeDeg><CityLongitudeDeg>4.3002800941467285</CityLongitudeDeg><CityNameFull>Hauteville</CityNameFull><CityNameSimple>hauteville</CityNameSimple><CityNameSoundex>H314</CityNameSoundex><CityZipCode>08300</CityZipCode></GRFCity>
<GRDFCity><CityId>2606</CityId><CityDepartment>08</CityDepartment><CityLatitudeDeg>49.45000076293945</CityLatitudeDeg><CityLongitudeDeg>4.766670227050781</CityLongitudeDeg><CityNameFull>Quatre-Champs</CityNameFull><CityNameSimple>quatre champs</CityNameSimple><CityNameSoundex>Q362512</CityNameSoundex><CityZipCode>08400</CityZipCode></GRFCity>
<GRDFCity><CityId>2862</CityId><CityDepartment>08</CityDepartment><CityLatitudeDeg>49.266700744628906</CityLatitudeDeg><CityLongitudeDeg>5</CityLongitudeDeg><CityNameFull>Apremont</CityNameFull><CityNameSimple>apremont</CityNameSimple><CityNameSoundex>A1653</CityNameSoundex><CityZipCode>08250</CityZipCode></GRFCity>
<GRDFCity><CityId>2607</CityId><CityDepartment>08</CityDepartment><CityLatitudeDeg>49.79999923706055</CityLatitudeDeg><CityLongitudeDeg>4.466670036315918</CityLongitudeDeg><CityNameFull>L'Échelle</CityNameFull><CityNameSimple>l echelle</CityNameSimple><CityNameSoundex>L240</CityNameSoundex><CityZipCode>08150</CityZipCode></GRFCity>
<GRDFCity><CityId>2863</CityId><CityDepartment>08</CityDepartment><CityLatitudeDeg>49.349998474121094</CityLatitudeDeg><CityLongitudeDeg>4.466670036315918</CityLongitudeDeg><CityNameFull>Cauroy</CityNameFull><CityNameSimple>cauroy</CityNameSimple><CityNameSoundex>C600</CityNameSoundex><CityZipCode>08310</CityZipCode></GRFCity>
<GRDFCity><CityId>2608</CityId><CityDepartment>08</CityDepartment><CityLatitudeDeg>49.79999923706055</CityLatitudeDeg><CityLongitudeDeg>4.349999904632568</CityLongitudeDeg><CityNameFull>Prez</CityNameFull><CityNameSimple>prez</CityNameSimple><CityNameSoundex>P620</CityNameSoundex><CityZipCode>08290</CityZipCode></GRFCity>
<GRDFCity><CityId>2864</CityId><CityDepartment>08</CityDepartment><CityLatitudeDeg>49.83330154418945</CityLatitudeDeg><CityLongitudeDeg>4.25</CityLongitudeDeg><CityNameFull>Bossus-lès-Rumigny</CityNameFull><CityNameSimple>bossus les rumigny</CityNameSimple><CityNameSoundex>B2426525</CityNameSoundex><CityZipCode>08290</CityZipCode></GRFCity>
<GRDFCity><CityId>2609</CityId><CityDepartment>08</CityDepartment><CityLatitudeDeg>49.75</CityLatitudeDeg><CityLongitudeDeg>4.36667013168335</CityLongitudeDeg><CityNameFull>Marlemont</CityNameFull><CityNameSimple>marlemont</CityNameSimple><CityNameSoundex>M6453</CityNameSoundex><CityZipCode>08290</CityZipCode></GRFCity>
<GRDFCity><CityId>2865</CityId><CityDepartment>08</CityDepartment><CityLatitudeDeg>49.33330154418945</CityLatitudeDeg><CityLongitudeDeg>4.583330154418945</CityLongitudeDeg><CityNameFull>Semide</CityNameFull><CityNameSimple>semide</CityNameSimple><CityNameSoundex>S530</CityNameSoundex><CityZipCode>08400</CityZipCode></GRFCity>
<GRDFCity><CityId>2610</CityId><CityDepartment>08</CityDepartment><CityLatitudeDeg>49.43330001831055</CityLatitudeDeg><CityLongitudeDeg>4.050000190734863</CityLongitudeDeg><CityNameFull>Brienne-sur-Aisne</CityNameFull><CityNameSimple>brienne sur aisne</CityNameSimple><CityNameSoundex>B652625</CityNameSoundex><CityZipCode>08190</CityZipCode></GRFCity>
<GRDFCity><CityId>2866</CityId><CityDepartment>08</CityDepartment><CityLatitudeDeg>49.68330001831055</CityLatitudeDeg><CityLongitudeDeg>5</CityLongitudeDeg><CityNameFull>La Moncelle</CityNameFull><CityNameSimple>la moncelle</CityNameSimple><CityNameSoundex>L524</CityNameSoundex><CityZipCode>08140</CityZipCode></GRFCity>
<GRDFCity><CityId>2611</CityId><CityDepartment>08</CityDepartment><CityLatitudeDeg>49.70000076293945</CityLatitudeDeg><CityLongitudeDeg>4.650000095367432</CityLongitudeDeg><CityNameFull>Champigneul-sur-Vence</CityNameFull><CityNameSimple>champigneul sur vence</CityNameSimple><CityNameSoundex>C5125426152</CityNameSoundex><CityZipCode>08430</CityZipCode></GRFCity>
<GRDFCity><CityId>2867</CityId><CityDepartment>08</CityDepartment><CityLatitudeDeg>49.599998474121094</CityLatitudeDeg><CityLongitudeDeg>5.333330154418945</CityLongitudeDeg><CityNameFull>Herbeuval</CityNameFull><CityNameSimple>herbeuval</CityNameSimple><CityNameSoundex>H614</CityNameSoundex><CityZipCode>08370</CityZipCode></GRFCity>
<GRDFCity><CityId>2612</CityId><CityDepartment>08</CityDepartment><CityLatitudeDeg>49.81669998168945</CityLatitudeDeg><CityLongitudeDeg>4.416669845581055</CityLongitudeDeg><CityNameFull>Marby</CityNameFull><CityNameSimple>marby</CityNameSimple><CityNameSoundex>M610</CityNameSoundex><CityZipCode>08260</CityZipCode></GRFCity>
<GRDFCity><CityId>2868</CityId><CityDepartment>08</CityDepartment><CityLatitudeDeg>49.57500076293945</CityLatitudeDeg><CityLongitudeDeg>5.300000190734863</CityLongitudeDeg><CityNameFull>Signy-Montlibert</CityNameFull><CityNameSimple>signy montlibert</CityNameSimple><CityNameSoundex>S534163</CityNameSoundex><CityZipCode>08370</CityZipCode></GRFCity>
<GRDFCity><CityId>2613</CityId><CityDepartment>08</CityDepartment><CityLatitudeDeg>49.650001525878906</CityLatitudeDeg><CityLongitudeDeg>4.949999809265137</CityLongitudeDeg><CityNameFull>Thelonne</CityNameFull><CityNameSimple>thelonne</CityNameSimple><CityNameSoundex>T450</CityNameSoundex><CityZipCode>08350</CityZipCode></GRFCity>
<GRDFCity><CityId>2869</CityId><CityDepartment>08</CityDepartment><CityLatitudeDeg>49.41669845581055</CityLatitudeDeg><CityLongitudeDeg>4.183330059051514</CityLongitudeDeg><CityNameFull>Roizy</CityNameFull><CityNameSimple>roizy</CityNameSimple><CityNameSoundex>R200</CityNameSoundex><CityZipCode>08190</CityZipCode></GRFCity>
<GRDFCity><CityId>2614</CityId><CityDepartment>08</CityDepartment><CityLatitudeDeg>49.400001525878906</CityLatitudeDeg><CityLongitudeDeg>4.38332986831665</CityLongitudeDeg><CityNameFull>Juniville</CityNameFull><CityNameSimple>juniville</CityNameSimple><CityNameSoundex>J514</CityNameSoundex><CityZipCode>08310</CityZipCode></GRFCity>
<GRDFCity><CityId>2870</CityId><CityDepartment>08</CityDepartment><CityLatitudeDeg>49.43330001831055</CityLatitudeDeg><CityLongitudeDeg>4.166669845581055</CityLongitudeDeg><CityNameFull>Sault-Saint-Remy</CityNameFull><CityNameSimple>sault saint remy</CityNameSimple><CityNameSoundex>S4325365</CityNameSoundex><CityZipCode>08190</CityZipCode></GRFCity>
<GRDFCity><CityId>2615</CityId><CityDepartment>08</CityDepartment><CityLatitudeDeg>49.6797981262207</CityLatitudeDeg><CityLongitudeDeg>4.849730014801025</CityLongitudeDeg><CityNameFull>Villers-sur-Bar</CityNameFull><CityNameSimple>villers sur bar</CityNameSimple><CityNameSoundex>V462616</CityNameSoundex><CityZipCode>08350</CityZipCode></GRFCity>
<GRDFCity><CityId>2871</CityId><CityDepartment>08</CityDepartment><CityLatitudeDeg>49.46670150756836</CityLatitudeDeg><CityLongitudeDeg>4.599999904632568</CityLongitudeDeg><CityNameFull>Sainte-Vaubourg</CityNameFull><CityNameSimple>sainte vaubourg</CityNameSimple><CityNameSoundex>S53162</CityNameSoundex><CityZipCode>08130</CityZipCode></GRFCity>
<GRDFCity><CityId>2616</CityId><CityDepartment>08</CityDepartment><CityLatitudeDeg>49.710899353027344</CityLatitudeDeg><CityLongitudeDeg>4.914730072021484</CityLongitudeDeg><CityNameFull>Glaire</CityNameFull><CityNameSimple>glaire</CityNameSimple><CityNameSoundex>G460</CityNameSoundex><CityZipCode>08200</CityZipCode></GRFCity>
<GRDFCity><CityId>2872</CityId><CityDepartment>08</CityDepartment><CityLatitudeDeg>49.63330078125</CityLatitudeDeg><CityLongitudeDeg>4.36667013168335</CityLongitudeDeg><CityNameFull>La Neuville-lès-Wasigny</CityNameFull><CityNameSimple>la neuville les wasigny</CityNameSimple><CityNameSoundex>L51425</CityNameSoundex><CityZipCode>08270</CityZipCode></GRFCity>
<GRDFCity><CityId>2617</CityId><CityDepartment>08</CityDepartment><CityLatitudeDeg>49.75</CityLatitudeDeg><CityLongitudeDeg>4.599999904632568</CityLongitudeDeg><CityNameFull>Neuville-lès-This</CityNameFull><CityNameSimple>neuville les this</CityNameSimple><CityNameSoundex>N14232</CityNameSoundex><CityZipCode>08090</CityZipCode></GRFCity>
<GRDFCity><CityId>2873</CityId><CityDepartment>08</CityDepartment><CityLatitudeDeg>49.95000076293945</CityLatitudeDeg><CityLongitudeDeg>4.533329963684082</CityLongitudeDeg><CityNameFull>Gué-d'Hossus</CityNameFull><CityNameSimple>gue d hossus</CityNameSimple><CityNameSoundex>G320</CityNameSoundex><CityZipCode>08230</CityZipCode></GRFCity>
<GRDFCity><CityId>2618</CityId><CityDepartment>08</CityDepartment><CityLatitudeDeg>49.63330078125</CityLatitudeDeg><CityLongitudeDeg>4.349999904632568</CityLongitudeDeg><CityNameFull>Wasigny</CityNameFull><CityNameSimple>wasigny</CityNameSimple><CityNameSoundex>W250</CityNameSoundex><CityZipCode>08270</CityZipCode></GRFCity>
<GRDFCity><CityId>2874</CityId><CityDepartment>08</CityDepartment><CityLatitudeDeg>49.56669998168945</CityLatitudeDeg><CityLongitudeDeg>4.316669940948486</CityLongitudeDeg><CityNameFull>Inaumont</CityNameFull><CityNameSimple>inaumont</CityNameSimple><CityNameSoundex>I530</CityNameSoundex><CityZipCode>08300</CityZipCode></GRFCity>
<GRDFCity><CityId>2619</CityId><CityDepartment>08</CityDepartment><CityLatitudeDeg>49.83330154418945</CityLatitudeDeg><CityLongitudeDeg>4.599999904632568</CityLongitudeDeg><CityNameFull>Renwez</CityNameFull><CityNameSimple>renwez</CityNameSimple><CityNameSoundex>R520</CityNameSoundex><CityZipCode>08150</CityZipCode></GRFCity>
<GRDFCity><CityId>2875</CityId><CityDepartment>08</CityDepartment><CityLatitudeDeg>49.53329849243164</CityLatitudeDeg><CityLongitudeDeg>4.916669845581055</CityLongitudeDeg><CityNameFull>La Berlière</CityNameFull><CityNameSimple>la berliere</CityNameSimple><CityNameSoundex>L1646</CityNameSoundex><CityZipCode>08240</CityZipCode></GRFCity>
<GRDFCity><CityId>2620</CityId><CityDepartment>08</CityDepartment><CityLatitudeDeg>49.78329849243164</CityLatitudeDeg><CityLongitudeDeg>4.316669940948486</CityLongitudeDeg><CityNameFull>Aouste</CityNameFull><CityNameSimple>aouste</CityNameSimple><CityNameSoundex>A230</CityNameSoundex><CityZipCode>08290</CityZipCode></GRFCity>
<GRDFCity><CityId>2876</CityId><CityDepartment>08</CityDepartment><CityLatitudeDeg>49.86669921875</CityLatitudeDeg><CityLongitudeDeg>4.300000190734863</CityLongitudeDeg><CityNameFull>Tarzy</CityNameFull><CityNameSimple>tarzy</CityNameSimple><CityNameSoundex>T620</CityNameSoundex><CityZipCode>08380</CityZipCode></GRFCity>
<GRDFCity><CityId>2621</CityId><CityDepartment>08</CityDepartment><CityLatitudeDeg>49.79999923706055</CityLatitudeDeg><CityLongitudeDeg>4.666669845581055</CityLongitudeDeg><CityNameFull>Damouzy</CityNameFull><CityNameSimple>damouzy</CityNameSimple><CityNameSoundex>D520</CityNameSoundex><CityZipCode>08090</CityZipCode></GRFCity>
<GRDFCity><CityId>2877</CityId><CityDepartment>08</CityDepartment><CityLatitudeDeg>49.733299255371094</CityLatitudeDeg><CityLongitudeDeg>4.833330154418945</CityLongitudeDeg><CityNameFull>Vivier-au-Court</CityNameFull><CityNameSimple>vivier au court</CityNameSimple><CityNameSoundex>V6263</CityNameSoundex><CityZipCode>08440</CityZipCode></GRFCity>
<GRDFCity><CityId>2622</CityId><CityDepartment>08</CityDepartment><CityLatitudeDeg>50.099998474121094</CityLatitudeDeg><CityLongitudeDeg>4.74114990234375</CityLongitudeDeg><CityNameFull>Hierges</CityNameFull><CityNameSimple>hierges</CityNameSimple><CityNameSoundex>H620</CityNameSoundex><CityZipCode>08320</CityZipCode></GRFCity>
<GRDFCity><CityId>2878</CityId><CityDepartment>08</CityDepartment><CityLatitudeDeg>49.77750015258789</CityLatitudeDeg><CityLongitudeDeg>4.23583984375</CityLongitudeDeg><CityNameFull>Blanchefosse-et-Bay</CityNameFull><CityNameSimple>blanchefosse et bay</CityNameSimple><CityNameSoundex>B4521231</CityNameSoundex><CityZipCode>08290</CityZipCode></GRFCity>
<GRDFCity><CityId>2623</CityId><CityDepartment>08</CityDepartment><CityLatitudeDeg>49.41669845581055</CityLatitudeDeg><CityLongitudeDeg>4.099999904632568</CityLongitudeDeg><CityNameFull>Poilcourt-Sydney</CityNameFull><CityNameSimple>poilcourt sydney</CityNameSimple><CityNameSoundex>P4263235</CityNameSoundex><CityZipCode>08190</CityZipCode></GRFCity>
<GRDFCity><CityId>2879</CityId><CityDepartment>08</CityDepartment><CityLatitudeDeg>49.70000076293945</CityLatitudeDeg><CityLongitudeDeg>5.083330154418945</CityLongitudeDeg><CityNameFull>Pouru-aux-Bois</CityNameFull><CityNameSimple>pouru aux bois</CityNameSimple><CityNameSoundex>P6212</CityNameSoundex><CityZipCode>08140</CityZipCode></GRFCity>
<GRDFCity><CityId>2624</CityId><CityDepartment>08</CityDepartment><CityLatitudeDeg>49.650001525878906</CityLatitudeDeg><CityLongitudeDeg>4.283329963684082</CityLongitudeDeg><CityNameFull>Givron</CityNameFull><CityNameSimple>givron</CityNameSimple><CityNameSoundex>G165</CityNameSoundex><CityZipCode>08220</CityZipCode></GRFCity>
<GRDFCity><CityId>2880</CityId><CityDepartment>08</CityDepartment><CityLatitudeDeg>49.61140060424805</CityLatitudeDeg><CityLongitudeDeg>5.1752800941467285</CityLongitudeDeg><CityNameFull>Sailly</CityNameFull><CityNameSimple>sailly</CityNameSimple><CityNameSoundex>S400</CityNameSoundex><CityZipCode>08110</CityZipCode></GRFCity>
<GRDFCity><CityId>2625</CityId><CityDepartment>08</CityDepartment><CityLatitudeDeg>49.38330078125</CityLatitudeDeg><CityLongitudeDeg>4.800000190734863</CityLongitudeDeg><CityNameFull>Longwé</CityNameFull><CityNameSimple>longwe</CityNameSimple><CityNameSoundex>L520</CityNameSoundex><CityZipCode>08400</CityZipCode></GRFCity>
<GRDFCity><CityId>2881</CityId><CityDepartment>08</CityDepartment><CityLatitudeDeg>49.650001525878906</CityLatitudeDeg><CityLongitudeDeg>4.583330154418945</CityLongitudeDeg><CityNameFull>Raillicourt</CityNameFull><CityNameSimple>raillicourt</CityNameSimple><CityNameSoundex>R4263</CityNameSoundex><CityZipCode>08430</CityZipCode></GRFCity>
<GRDFCity><CityId>2626</CityId><CityDepartment>08</CityDepartment><CityLatitudeDeg>49.41669845581055</CityLatitudeDeg><CityLongitudeDeg>4.599999904632568</CityLongitudeDeg><CityNameFull>Quilly</CityNameFull><CityNameSimple>quilly</CityNameSimple><CityNameSoundex>Q400</CityNameSoundex><CityZipCode>08400</CityZipCode></GRFCity>
<GRDFCity><CityId>2882</CityId><CityDepartment>08</CityDepartment><CityLatitudeDeg>49.493099212646484</CityLatitudeDeg><CityLongitudeDeg>4.873889923095703</CityLongitudeDeg><CityNameFull>Verrières</CityNameFull><CityNameSimple>verrieres</CityNameSimple><CityNameSoundex>V620</CityNameSoundex><CityZipCode>08390</CityZipCode></GRFCity>
<GRDFCity><CityId>2627</CityId><CityDepartment>08</CityDepartment><CityLatitudeDeg>49.599998474121094</CityLatitudeDeg><CityLongitudeDeg>5.300000190734863</CityLongitudeDeg><CityNameFull>Sapogne-sur-Marche</CityNameFull><CityNameSimple>sapogne sur marche</CityNameSimple><CityNameSoundex>S12526562</CityNameSoundex><CityZipCode>08370</CityZipCode></GRFCity>
<GRDFCity><CityId>2883</CityId><CityDepartment>08</CityDepartment><CityLatitudeDeg>49.53329849243164</CityLatitudeDeg><CityLongitudeDeg>4.233329772949219</CityLongitudeDeg><CityNameFull>Condé-lès-Herpy</CityNameFull><CityNameSimple>conde les herpy</CityNameSimple><CityNameSoundex>C534261</CityNameSoundex><CityZipCode>08360</CityZipCode></GRFCity>
<GRDFCity><CityId>2628</CityId><CityDepartment>08</CityDepartment><CityLatitudeDeg>49.733299255371094</CityLatitudeDeg><CityLongitudeDeg>4.666669845581055</CityLongitudeDeg><CityNameFull>Évigny</CityNameFull><CityNameSimple>evigny</CityNameSimple><CityNameSoundex>E125</CityNameSoundex><CityZipCode>08090</CityZipCode></GRFCity>
<GRDFCity><CityId>2884</CityId><CityDepartment>08</CityDepartment><CityLatitudeDeg>49.516700744628906</CityLatitudeDeg><CityLongitudeDeg>4.86667013168335</CityLongitudeDeg><CityNameFull>Sy</CityNameFull><CityNameSimple>sy</CityNameSimple><CityNameSoundex>S000</CityNameSoundex><CityZipCode>08390</CityZipCode></GRFCity>
<GRDFCity><CityId>2629</CityId><CityDepartment>08</CityDepartment><CityLatitudeDeg>49.691200256347656</CityLatitudeDeg><CityLongitudeDeg>4.185279846191406</CityLongitudeDeg><CityNameFull>Vaux-lès-Rubigny</CityNameFull><CityNameSimple>vaux les rubigny</CityNameSimple><CityNameSoundex>V2426125</CityNameSoundex><CityZipCode>08220</CityZipCode></GRFCity>
<GRDFCity><CityId>2885</CityId><CityDepartment>08</CityDepartment><CityLatitudeDeg>49.31669998168945</CityLatitudeDeg><CityLongitudeDeg>4.716670036315918</CityLongitudeDeg><CityNameFull>Monthois</CityNameFull><CityNameSimple>monthois</CityNameSimple><CityNameSoundex>M320</CityNameSoundex><CityZipCode>08400</CityZipCode></GRFCity>
<GRDFCity><CityId>2630</CityId><CityDepartment>08</CityDepartment><CityLatitudeDeg>49.71670150756836</CityLatitudeDeg><CityLongitudeDeg>4.75</CityLongitudeDeg><CityNameFull>Chalandry-Elaire</CityNameFull><CityNameSimple>chalandry elaire</CityNameSimple><CityNameSoundex>C453646</CityNameSoundex><CityZipCode>08160</CityZipCode></GRFCity>
<GRDFCity><CityId>2886</CityId><CityDepartment>08</CityDepartment><CityLatitudeDeg>49.54999923706055</CityLatitudeDeg><CityLongitudeDeg>4.5</CityLongitudeDeg><CityNameFull>Auboncourt-Vauzelles</CityNameFull><CityNameSimple>auboncourt vauzelles</CityNameSimple><CityNameSoundex>A152631242</CityNameSoundex><CityZipCode>08270</CityZipCode></GRFCity>
<GRDFCity><CityId>2631</CityId><CityDepartment>08</CityDepartment><CityLatitudeDeg>49.31669998168945</CityLatitudeDeg><CityLongitudeDeg>4.983329772949219</CityLongitudeDeg><CityNameFull>Sommerance</CityNameFull><CityNameSimple>sommerance</CityNameSimple><CityNameSoundex>S5652</CityNameSoundex><CityZipCode>08250</CityZipCode></GRFCity>
<GRDFCity><CityId>2887</CityId><CityDepartment>08</CityDepartment><CityLatitudeDeg>49.45000076293945</CityLatitudeDeg><CityLongitudeDeg>4.550000190734863</CityLongitudeDeg><CityNameFull>Vaux-Champagne</CityNameFull><CityNameSimple>vaux champagne</CityNameSimple><CityNameSoundex>V25125</CityNameSoundex><CityZipCode>08130</CityZipCode></GRFCity>
<GRDFCity><CityId>2632</CityId><CityDepartment>08</CityDepartment><CityLatitudeDeg>49.61669921875</CityLatitudeDeg><CityLongitudeDeg>4.400000095367432</CityLongitudeDeg><CityNameFull>Mesmont</CityNameFull><CityNameSimple>mesmont</CityNameSimple><CityNameSoundex>M253</CityNameSoundex><CityZipCode>08270</CityZipCode></GRFCity>
<GRDFCity><CityId>2888</CityId><CityDepartment>08</CityDepartment><CityLatitudeDeg>49.86669921875</CityLatitudeDeg><CityLongitudeDeg>4.783329963684082</CityLongitudeDeg><CityNameFull>Haulmé</CityNameFull><CityNameSimple>haulme</CityNameSimple><CityNameSoundex>H450</CityNameSoundex><CityZipCode>08800</CityZipCode></GRFCity>
<GRDFCity><CityId>2633</CityId><CityDepartment>08</CityDepartment><CityLatitudeDeg>49.68330001831055</CityLatitudeDeg><CityLongitudeDeg>4.650000095367432</CityLongitudeDeg><CityNameFull>Guignicourt-sur-Vence</CityNameFull><CityNameSimple>guignicourt sur vence</CityNameSimple><CityNameSoundex>G526326152</CityNameSoundex><CityZipCode>08430</CityZipCode></GRFCity>
<GRDFCity><CityId>2889</CityId><CityDepartment>08</CityDepartment><CityLatitudeDeg>49.78329849243164</CityLatitudeDeg><CityLongitudeDeg>4.800000190734863</CityLongitudeDeg><CityNameFull>La Grandville</CityNameFull><CityNameSimple>la grandville</CityNameSimple><CityNameSoundex>L265314</CityNameSoundex><CityZipCode>08700</CityZipCode></GRFCity>
<GRDFCity><CityId>2634</CityId><CityDepartment>08</CityDepartment><CityLatitudeDeg>49.88330078125</CityLatitudeDeg><CityLongitudeDeg>4.733329772949219</CityLongitudeDeg><CityNameFull>Monthermé</CityNameFull><CityNameSimple>montherme</CityNameSimple><CityNameSoundex>M365</CityNameSoundex><CityZipCode>08800</CityZipCode></GRFCity>
<GRDFCity><CityId>2890</CityId><CityDepartment>08</CityDepartment><CityLatitudeDeg>49.733299255371094</CityLatitudeDeg><CityLongitudeDeg>4.63332986831665</CityLongitudeDeg><CityNameFull>Fagnon</CityNameFull><CityNameSimple>fagnon</CityNameSimple><CityNameSoundex>F250</CityNameSoundex><CityZipCode>08090</CityZipCode></GRFCity>
<GRDFCity><CityId>2635</CityId><CityDepartment>08</CityDepartment><CityLatitudeDeg>49.599998474121094</CityLatitudeDeg><CityLongitudeDeg>5.216670036315918</CityLongitudeDeg><CityNameFull>Villy</CityNameFull><CityNameSimple>villy</CityNameSimple><CityNameSoundex>V400</CityNameSoundex><CityZipCode>08370</CityZipCode></GRFCity>
<GRDFCity><CityId>2891</CityId><CityDepartment>08</CityDepartment><CityLatitudeDeg>49.53499984741211</CityLatitudeDeg><CityLongitudeDeg>4.8780598640441895</CityLongitudeDeg><CityNameFull>Le Mont-Dieu</CityNameFull><CityNameSimple>le mont dieu</CityNameSimple><CityNameSoundex>L530</CityNameSoundex><CityZipCode>08390</CityZipCode></GRFCity>
<GRDFCity><CityId>2636</CityId><CityDepartment>08</CityDepartment><CityLatitudeDeg>49.33330154418945</CityLatitudeDeg><CityLongitudeDeg>4.900000095367432</CityLongitudeDeg><CityNameFull>Chevières</CityNameFull><CityNameSimple>chevieres</CityNameSimple><CityNameSoundex>C162</CityNameSoundex><CityZipCode>08250</CityZipCode></GRFCity>
<GRDFCity><CityId>2892</CityId><CityDepartment>08</CityDepartment><CityLatitudeDeg>49.54999923706055</CityLatitudeDeg><CityLongitudeDeg>4.800000190734863</CityLongitudeDeg><CityNameFull>Sauville</CityNameFull><CityNameSimple>sauville</CityNameSimple><CityNameSoundex>S140</CityNameSoundex><CityZipCode>08390</CityZipCode></GRFCity>
<GRDFCity><CityId>2637</CityId><CityDepartment>08</CityDepartment><CityLatitudeDeg>49.599998474121094</CityLatitudeDeg><CityLongitudeDeg>4.533329963684082</CityLongitudeDeg><CityNameFull>Puiseux</CityNameFull><CityNameSimple>puiseux</CityNameSimple><CityNameSoundex>P200</CityNameSoundex><CityZipCode>08270</CityZipCode></GRFCity>
<GRDFCity><CityId>2893</CityId><CityDepartment>08</CityDepartment><CityLatitudeDeg>49.483299255371094</CityLatitudeDeg><CityLongitudeDeg>4.449999809265137</CityLongitudeDeg><CityNameFull>Seuil</CityNameFull><CityNameSimple>seuil</CityNameSimple><CityNameSoundex>S400</CityNameSoundex><CityZipCode>08300</CityZipCode></GRFCity>
<GRDFCity><CityId>2638</CityId><CityDepartment>08</CityDepartment><CityLatitudeDeg>49.81669998168945</CityLatitudeDeg><CityLongitudeDeg>4.75</CityLongitudeDeg><CityNameFull>Nouzonville</CityNameFull><CityNameSimple>nouzonville</CityNameSimple><CityNameSoundex>N2514</CityNameSoundex><CityZipCode>08700</CityZipCode></GRFCity>
<GRDFCity><CityId>2894</CityId><CityDepartment>08</CityDepartment><CityLatitudeDeg>49.45000076293945</CityLatitudeDeg><CityLongitudeDeg>4.900000095367432</CityLongitudeDeg><CityNameFull>Autruche</CityNameFull><CityNameSimple>autruche</CityNameSimple><CityNameSoundex>A362</CityNameSoundex><CityZipCode>08240</CityZipCode></GRFCity>
<GRDFCity><CityId>2639</CityId><CityDepartment>08</CityDepartment><CityLatitudeDeg>49.71670150756836</CityLatitudeDeg><CityLongitudeDeg>4.733329772949219</CityLongitudeDeg><CityNameFull>Saint-Marceau</CityNameFull><CityNameSimple>saint marceau</CityNameSimple><CityNameSoundex>S53562</CityNameSoundex><CityZipCode>08160</CityZipCode></GRFCity>
<GRDFCity><CityId>2895</CityId><CityDepartment>08</CityDepartment><CityLatitudeDeg>49.43330001831055</CityLatitudeDeg><CityLongitudeDeg>4.416669845581055</CityLongitudeDeg><CityNameFull>Annelles</CityNameFull><CityNameSimple>annelles</CityNameSimple><CityNameSoundex>A542</CityNameSoundex><CityZipCode>08310</CityZipCode></GRFCity>
<GRDFCity><CityId>2640</CityId><CityDepartment>08</CityDepartment><CityLatitudeDeg>49.61669921875</CityLatitudeDeg><CityLongitudeDeg>5.183330059051514</CityLongitudeDeg><CityNameFull>Blagny</CityNameFull><CityNameSimple>blagny</CityNameSimple><CityNameSoundex>B425</CityNameSoundex><CityZipCode>08110</CityZipCode></GRFCity>
<GRDFCity><CityId>2896</CityId><CityDepartment>08</CityDepartment><CityLatitudeDeg>49.43330001831055</CityLatitudeDeg><CityLongitudeDeg>4.783329963684082</CityLongitudeDeg><CityNameFull>Toges</CityNameFull><CityNameSimple>toges</CityNameSimple><CityNameSoundex>T200</CityNameSoundex><CityZipCode>08400</CityZipCode></GRFCity>
<GRDFCity><CityId>2641</CityId><CityDepartment>08</CityDepartment><CityLatitudeDeg>49.68330001831055</CityLatitudeDeg><CityLongitudeDeg>4.25</CityLongitudeDeg><CityNameFull>Rocquigny</CityNameFull><CityNameSimple>rocquigny</CityNameSimple><CityNameSoundex>R250</CityNameSoundex><CityZipCode>08220</CityZipCode></GRFCity>
<GRDFCity><CityId>2897</CityId><CityDepartment>08</CityDepartment><CityLatitudeDeg>49.46670150756836</CityLatitudeDeg><CityLongitudeDeg>4.11667013168335</CityLongitudeDeg><CityNameFull>Asfeld</CityNameFull><CityNameSimple>asfeld</CityNameSimple><CityNameSoundex>A2143</CityNameSoundex><CityZipCode>08190</CityZipCode></GRFCity>
<GRDFCity><CityId>2642</CityId><CityDepartment>08</CityDepartment><CityLatitudeDeg>49.650001525878906</CityLatitudeDeg><CityLongitudeDeg>4.849999904632568</CityLongitudeDeg><CityNameFull>Saint-Aignan</CityNameFull><CityNameSimple>saint aignan</CityNameSimple><CityNameSoundex>S5325</CityNameSoundex><CityZipCode>08350</CityZipCode></GRFCity>
<GRDFCity><CityId>2643</CityId><CityDepartment>08</CityDepartment><CityLatitudeDeg>49.650001525878906</CityLatitudeDeg><CityLongitudeDeg>4.61667013168335</CityLongitudeDeg><CityNameFull>Montigny-sur-Vence</CityNameFull><CityNameSimple>montigny sur vence</CityNameSimple><CityNameSoundex>M32526152</CityNameSoundex><CityZipCode>08430</CityZipCode></GRFCity>
<GRDFCity><CityId>2644</CityId><CityDepartment>08</CityDepartment><CityLatitudeDeg>49.60029983520508</CityLatitudeDeg><CityLongitudeDeg>4.868889808654785</CityLongitudeDeg><CityNameFull>Chémery-sur-Bar</CityNameFull><CityNameSimple>chemery sur bar</CityNameSimple><CityNameSoundex>C562616</CityNameSoundex><CityZipCode>08450</CityZipCode></GRFCity>
<GRDFCity><CityId>2645</CityId><CityDepartment>08</CityDepartment><CityLatitudeDeg>49.516700744628906</CityLatitudeDeg><CityLongitudeDeg>4.266670227050781</CityLongitudeDeg><CityNameFull>Taizy</CityNameFull><CityNameSimple>taizy</CityNameSimple><CityNameSoundex>T200</CityNameSoundex><CityZipCode>08360</CityZipCode></GRFCity>
<GRDFCity><CityId>2646</CityId><CityDepartment>08</CityDepartment><CityLatitudeDeg>49.599998474121094</CityLatitudeDeg><CityLongitudeDeg>4.733329772949219</CityLongitudeDeg><CityNameFull>Omont</CityNameFull><CityNameSimple>omont</CityNameSimple><CityNameSoundex>O530</CityNameSoundex><CityZipCode>08430</CityZipCode></GRFCity>
<GRDFCity><CityId>2647</CityId><CityDepartment>08</CityDepartment><CityLatitudeDeg>49.58330154418945</CityLatitudeDeg><CityLongitudeDeg>4.699999809265137</CityLongitudeDeg><CityNameFull>Chagny</CityNameFull><CityNameSimple>chagny</CityNameSimple><CityNameSoundex>C500</CityNameSoundex><CityZipCode>08430</CityZipCode></GRFCity>
<GRDFCity><CityId>2648</CityId><CityDepartment>08</CityDepartment><CityLatitudeDeg>49.88330078125</CityLatitudeDeg><CityLongitudeDeg>4.38332986831665</CityLongitudeDeg><CityNameFull>Éteignières</CityNameFull><CityNameSimple>eteignieres</CityNameSimple><CityNameSoundex>E32562</CityNameSoundex><CityZipCode>08260</CityZipCode></GRFCity>
<GRDFCity><CityId>2649</CityId><CityDepartment>08</CityDepartment><CityLatitudeDeg>49.75</CityLatitudeDeg><CityLongitudeDeg>4.86667013168335</CityLongitudeDeg><CityNameFull>Bosseval-et-Briancourt</CityNameFull><CityNameSimple>bosseval et briancourt</CityNameSimple><CityNameSoundex>B2143165263</CityNameSoundex><CityZipCode>08350</CityZipCode></GRFCity>
<GRDFCity><CityId>2650</CityId><CityDepartment>08</CityDepartment><CityLatitudeDeg>49.58330154418945</CityLatitudeDeg><CityLongitudeDeg>4.86667013168335</CityLongitudeDeg><CityNameFull>La Neuville-à-Maire</CityNameFull><CityNameSimple>la neuville a maire</CityNameSimple><CityNameSoundex>L51456</CityNameSoundex><CityZipCode>08450</CityZipCode></GRFCity>
<GRDFCity><CityId>2651</CityId><CityDepartment>08</CityDepartment><CityLatitudeDeg>49.61669921875</CityLatitudeDeg><CityLongitudeDeg>4.966670036315918</CityLongitudeDeg><CityNameFull>Haraucourt</CityNameFull><CityNameSimple>haraucourt</CityNameSimple><CityNameSoundex>H6263</CityNameSoundex><CityZipCode>08450</CityZipCode></GRFCity>
<GRDFCity><CityId>2652</CityId><CityDepartment>08</CityDepartment><CityLatitudeDeg>50.016700744628906</CityLatitudeDeg><CityLongitudeDeg>4.783329963684082</CityLongitudeDeg><CityNameFull>Hargnies</CityNameFull><CityNameSimple>hargnies</CityNameSimple><CityNameSoundex>H6252</CityNameSoundex><CityZipCode>08170</CityZipCode></GRFCity>
<GRDFCity><CityId>2653</CityId><CityDepartment>08</CityDepartment><CityLatitudeDeg>49.56669998168945</CityLatitudeDeg><CityLongitudeDeg>4.216670036315918</CityLongitudeDeg><CityNameFull>Saint-Fergeux</CityNameFull><CityNameSimple>saint fergeux</CityNameSimple><CityNameSoundex>S53162</CityNameSoundex><CityZipCode>08360</CityZipCode></GRFCity>
<GRDFCity><CityId>2654</CityId><CityDepartment>08</CityDepartment><CityLatitudeDeg>49.733299255371094</CityLatitudeDeg><CityLongitudeDeg>4.716670036315918</CityLongitudeDeg><CityNameFull>La Francheville</CityNameFull><CityNameSimple>la francheville</CityNameSimple><CityNameSoundex>L165214</CityNameSoundex><CityZipCode>08000</CityZipCode></GRFCity>
<GRDFCity><CityId>2655</CityId><CityDepartment>08</CityDepartment><CityLatitudeDeg>49.434200286865234</CityLatitudeDeg><CityLongitudeDeg>4.92917013168335</CityLongitudeDeg><CityNameFull>Harricourt</CityNameFull><CityNameSimple>harricourt</CityNameSimple><CityNameSoundex>H6263</CityNameSoundex><CityZipCode>08240</CityZipCode></GRFCity>
<GRDFCity><CityId>2656</CityId><CityDepartment>08</CityDepartment><CityLatitudeDeg>49.71670150756836</CityLatitudeDeg><CityLongitudeDeg>4.349999904632568</CityLongitudeDeg><CityNameFull>Maranwez</CityNameFull><CityNameSimple>maranwez</CityNameSimple><CityNameSoundex>M652</CityNameSoundex><CityZipCode>08460</CityZipCode></GRFCity>
<GRDFCity><CityId>2657</CityId><CityDepartment>08</CityDepartment><CityLatitudeDeg>49.516700744628906</CityLatitudeDeg><CityLongitudeDeg>4.316669940948486</CityLongitudeDeg><CityNameFull>Barby</CityNameFull><CityNameSimple>barby</CityNameSimple><CityNameSoundex>B610</CityNameSoundex><CityZipCode>08300</CityZipCode></GRFCity>
<GRDFCity><CityId>2658</CityId><CityDepartment>08</CityDepartment><CityLatitudeDeg>49.56669998168945</CityLatitudeDeg><CityLongitudeDeg>5.016670227050781</CityLongitudeDeg><CityNameFull>Yoncq</CityNameFull><CityNameSimple>yoncq</CityNameSimple><CityNameSoundex>Y520</CityNameSoundex><CityZipCode>08210</CityZipCode></GRFCity>
<GRDFCity><CityId>2659</CityId><CityDepartment>08</CityDepartment><CityLatitudeDeg>49.88330078125</CityLatitudeDeg><CityLongitudeDeg>4.533329963684082</CityLongitudeDeg><CityNameFull>Bourg-Fidèle</CityNameFull><CityNameSimple>bourg fidele</CityNameSimple><CityNameSoundex>B62134</CityNameSoundex><CityZipCode>08230</CityZipCode></GRFCity>
<GRDFCity><CityId>2660</CityId><CityDepartment>08</CityDepartment><CityLatitudeDeg>49.43330001831055</CityLatitudeDeg><CityLongitudeDeg>4.583330154418945</CityLongitudeDeg><CityNameFull>Coulommes-et-Marqueny</CityNameFull><CityNameSimple>coulommes et marqueny</CityNameSimple><CityNameSoundex>C45235625</CityNameSoundex><CityZipCode>08130</CityZipCode></GRFCity>
<GRDFCity><CityId>2661</CityId><CityDepartment>08</CityDepartment><CityLatitudeDeg>49.58330154418945</CityLatitudeDeg><CityLongitudeDeg>4.266670227050781</CityLongitudeDeg><CityNameFull>Son</CityNameFull><CityNameSimple>son</CityNameSimple><CityNameSoundex>S500</CityNameSoundex><CityZipCode>08300</CityZipCode></GRFCity>
<GRDFCity><CityId>2662</CityId><CityDepartment>08</CityDepartment><CityLatitudeDeg>49.266700744628906</CityLatitudeDeg><CityLongitudeDeg>4.716670036315918</CityLongitudeDeg><CityNameFull>Ardeuil-et-Montfauxelles</CityNameFull><CityNameSimple>ardeuil et montfauxelles</CityNameSimple><CityNameSoundex>A6343531242</CityNameSoundex><CityZipCode>08400</CityZipCode></GRFCity>
<GRDFCity><CityId>2663</CityId><CityDepartment>08</CityDepartment><CityLatitudeDeg>49.41669845581055</CityLatitudeDeg><CityLongitudeDeg>4.63332986831665</CityLongitudeDeg><CityNameFull>Grivy-Loisy</CityNameFull><CityNameSimple>grivy loisy</CityNameSimple><CityNameSoundex>G6142</CityNameSoundex><CityZipCode>08400</CityZipCode></GRFCity>
<GRDFCity><CityId>2664</CityId><CityDepartment>08</CityDepartment><CityLatitudeDeg>49.83330154418945</CityLatitudeDeg><CityLongitudeDeg>4.63332986831665</CityLongitudeDeg><CityNameFull>Montcornet</CityNameFull><CityNameSimple>montcornet</CityNameSimple><CityNameSoundex>M32653</CityNameSoundex><CityZipCode>08090</CityZipCode></GRFCity>
<GRDFCity><CityId>2665</CityId><CityDepartment>08</CityDepartment><CityLatitudeDeg>49.368900299072266</CityLatitudeDeg><CityLongitudeDeg>4.899449825286865</CityLongitudeDeg><CityNameFull>Beffu-et-le-Morthomme</CityNameFull><CityNameSimple>beffu et le morthomme</CityNameSimple><CityNameSoundex>B345635</CityNameSoundex><CityZipCode>08250</CityZipCode></GRFCity>
<GRDFCity><CityId>2666</CityId><CityDepartment>08</CityDepartment><CityLatitudeDeg>49.71670150756836</CityLatitudeDeg><CityLongitudeDeg>4.63332986831665</CityLongitudeDeg><CityNameFull>Mondigny</CityNameFull><CityNameSimple>mondigny</CityNameSimple><CityNameSoundex>M325</CityNameSoundex><CityZipCode>08430</CityZipCode></GRFCity>
<GRDFCity><CityId>2667</CityId><CityDepartment>08</CityDepartment><CityLatitudeDeg>49.70000076293945</CityLatitudeDeg><CityLongitudeDeg>4.666669845581055</CityLongitudeDeg><CityNameFull>Saint-Pierre-sur-Vence</CityNameFull><CityNameSimple>saint pierre sur vence</CityNameSimple><CityNameSoundex>S531626152</CityNameSoundex><CityZipCode>08430</CityZipCode></GRFCity>
<GRDFCity><CityId>2668</CityId><CityDepartment>08</CityDepartment><CityLatitudeDeg>49.81669998168945</CityLatitudeDeg><CityLongitudeDeg>4.833330154418945</CityLongitudeDeg><CityNameFull>Gespunsart</CityNameFull><CityNameSimple>gespunsart</CityNameSimple><CityNameSoundex>G15263</CityNameSoundex><CityZipCode>08700</CityZipCode></GRFCity>
<GRDFCity><CityId>2669</CityId><CityDepartment>08</CityDepartment><CityLatitudeDeg>49.86669921875</CityLatitudeDeg><CityLongitudeDeg>4.783329963684082</CityLongitudeDeg><CityNameFull>Tournavaux</CityNameFull><CityNameSimple>tournavaux</CityNameSimple><CityNameSoundex>T6512</CityNameSoundex><CityZipCode>08800</CityZipCode></GRFCity>
<GRDFCity><CityId>2670</CityId><CityDepartment>08</CityDepartment><CityLatitudeDeg>49.41669845581055</CityLatitudeDeg><CityLongitudeDeg>4.300000190734863</CityLongitudeDeg><CityNameFull>Neuflize</CityNameFull><CityNameSimple>neuflize</CityNameSimple><CityNameSoundex>N142</CityNameSoundex><CityZipCode>08300</CityZipCode></GRFCity>
<GRDFCity><CityId>2671</CityId><CityDepartment>08</CityDepartment><CityLatitudeDeg>49.88330078125</CityLatitudeDeg><CityLongitudeDeg>4.833330154418945</CityLongitudeDeg><CityNameFull>Hautes-Rivières</CityNameFull><CityNameSimple>les hautes rivieres</CityNameSimple><CityNameSoundex>L2326162</CityNameSoundex><CityZipCode>08800</CityZipCode></GRFCity>
<GRDFCity><CityId>2672</CityId><CityDepartment>08</CityDepartment><CityLatitudeDeg>49.53329849243164</CityLatitudeDeg><CityLongitudeDeg>5.050000190734863</CityLongitudeDeg><CityNameFull>Beaumont-en-Argonne</CityNameFull><CityNameSimple>beaumont en argonne</CityNameSimple><CityNameSoundex>B535625</CityNameSoundex><CityZipCode>08210</CityZipCode></GRFCity>
<GRDFCity><CityId>2673</CityId><CityDepartment>08</CityDepartment><CityLatitudeDeg>49.63330078125</CityLatitudeDeg><CityLongitudeDeg>5.066669940948486</CityLongitudeDeg><CityNameFull>Amblimont</CityNameFull><CityNameSimple>amblimont</CityNameSimple><CityNameSoundex>A51453</CityNameSoundex><CityZipCode>08210</CityZipCode></GRFCity>
<GRDFCity><CityId>2674</CityId><CityDepartment>08</CityDepartment><CityLatitudeDeg>49.5</CityLatitudeDeg><CityLongitudeDeg>4.11667013168335</CityLongitudeDeg><CityNameFull>Saint-Germainmont</CityNameFull><CityNameSimple>saint germainmont</CityNameSimple><CityNameSoundex>S532653</CityNameSoundex><CityZipCode>08190</CityZipCode></GRFCity>
<GRDFCity><CityId>2675</CityId><CityDepartment>08</CityDepartment><CityLatitudeDeg>49.400001525878906</CityLatitudeDeg><CityLongitudeDeg>4.800000190734863</CityLongitudeDeg><CityNameFull>La Croix-aux-Bois</CityNameFull><CityNameSimple>la croix aux bois</CityNameSimple><CityNameSoundex>L26212</CityNameSoundex><CityZipCode>08400</CityZipCode></GRFCity>
<GRDFCity><CityId>2676</CityId><CityDepartment>08</CityDepartment><CityLatitudeDeg>49.400001525878906</CityLatitudeDeg><CityLongitudeDeg>4.516670227050781</CityLongitudeDeg><CityNameFull>Dricourt</CityNameFull><CityNameSimple>dricourt</CityNameSimple><CityNameSoundex>D6263</CityNameSoundex><CityZipCode>08310</CityZipCode></GRFCity>
<GRDFCity><CityId>2677</CityId><CityDepartment>08</CityDepartment><CityLatitudeDeg>49.31669998168945</CityLatitudeDeg><CityLongitudeDeg>4.766670227050781</CityLongitudeDeg><CityNameFull>Brécy-Brières</CityNameFull><CityNameSimple>brecy brieres</CityNameSimple><CityNameSoundex>B62162</CityNameSoundex><CityZipCode>08400</CityZipCode></GRFCity>
<GRDFCity><CityId>2678</CityId><CityDepartment>08</CityDepartment><CityLatitudeDeg>49.5</CityLatitudeDeg><CityLongitudeDeg>4.333330154418945</CityLongitudeDeg><CityNameFull>Acy-Romance</CityNameFull><CityNameSimple>acy romance</CityNameSimple><CityNameSoundex>A2652</CityNameSoundex><CityZipCode>08300</CityZipCode></GRFCity>
<GRDFCity><CityId>2679</CityId><CityDepartment>08</CityDepartment><CityLatitudeDeg>49.71670150756836</CityLatitudeDeg><CityLongitudeDeg>4.933330059051514</CityLongitudeDeg><CityNameFull>Floing</CityNameFull><CityNameSimple>floing</CityNameSimple><CityNameSoundex>F452</CityNameSoundex><CityZipCode>08200</CityZipCode></GRFCity>
<GRDFCity><CityId>2680</CityId><CityDepartment>08</CityDepartment><CityLatitudeDeg>49.81669998168945</CityLatitudeDeg><CityLongitudeDeg>4.800000190734863</CityLongitudeDeg><CityNameFull>Neufmanil</CityNameFull><CityNameSimple>neufmanil</CityNameSimple><CityNameSoundex>N154</CityNameSoundex><CityZipCode>08700</CityZipCode></GRFCity>
<GRDFCity><CityId>2681</CityId><CityDepartment>08</CityDepartment><CityLatitudeDeg>49.766700744628906</CityLatitudeDeg><CityLongitudeDeg>4.716670036315918</CityLongitudeDeg><CityNameFull>Charleville-Mézières</CityNameFull><CityNameSimple>charleville mezieres</CityNameSimple><CityNameSoundex>C64145262</CityNameSoundex><CityZipCode>08090</CityZipCode></GRFCity>
<GRDFCity><CityId>2682</CityId><CityDepartment>08</CityDepartment><CityLatitudeDeg>49.91669845581055</CityLatitudeDeg><CityLongitudeDeg>4.233329772949219</CityLongitudeDeg><CityNameFull>La Neuville-aux-Joûtes</CityNameFull><CityNameSimple>la neuville aux joutes</CityNameSimple><CityNameSoundex>L514232</CityNameSoundex><CityZipCode>08380</CityZipCode></GRFCity>
<GRDFCity><CityId>2683</CityId><CityDepartment>08</CityDepartment><CityLatitudeDeg>49.8109016418457</CityLatitudeDeg><CityLongitudeDeg>4.613339900970459</CityLongitudeDeg><CityNameFull>Cliron</CityNameFull><CityNameSimple>cliron</CityNameSimple><CityNameSoundex>C465</CityNameSoundex><CityZipCode>08090</CityZipCode></GRFCity>
<GRDFCity><CityId>2684</CityId><CityDepartment>08</CityDepartment><CityLatitudeDeg>49.46670150756836</CityLatitudeDeg><CityLongitudeDeg>5.033329963684082</CityLongitudeDeg><CityNameFull>Belval-Bois-des-Dames</CityNameFull><CityNameSimple>belval bois des dames</CityNameSimple><CityNameSoundex>B4141232352</CityNameSoundex><CityZipCode>08240</CityZipCode></GRFCity>
<GRDFCity><CityId>2685</CityId><CityDepartment>08</CityDepartment><CityLatitudeDeg>49.599998474121094</CityLatitudeDeg><CityLongitudeDeg>4.066669940948486</CityLongitudeDeg><CityNameFull>Sévigny-Waleppe</CityNameFull><CityNameSimple>sevigny waleppe</CityNameSimple><CityNameSoundex>S12541</CityNameSoundex><CityZipCode>08220</CityZipCode></GRFCity>
<GRDFCity><CityId>2686</CityId><CityDepartment>08</CityDepartment><CityLatitudeDeg>49.650001525878906</CityLatitudeDeg><CityLongitudeDeg>5.25</CityLongitudeDeg><CityNameFull>Tremblois-lès-Carignan</CityNameFull><CityNameSimple>tremblois les carignan</CityNameSimple><CityNameSoundex>T6514242625</CityNameSoundex><CityZipCode>08110</CityZipCode></GRFCity>
<GRDFCity><CityId>2687</CityId><CityDepartment>08</CityDepartment><CityLatitudeDeg>49.483299255371094</CityLatitudeDeg><CityLongitudeDeg>4.650000095367432</CityLongitudeDeg><CityNameFull>Semuy</CityNameFull><CityNameSimple>semuy</CityNameSimple><CityNameSoundex>S500</CityNameSoundex><CityZipCode>08130</CityZipCode></GRFCity>
<GRDFCity><CityId>2688</CityId><CityDepartment>08</CityDepartment><CityLatitudeDeg>49.79999923706055</CityLatitudeDeg><CityLongitudeDeg>4.266670227050781</CityLongitudeDeg><CityNameFull>Rumigny</CityNameFull><CityNameSimple>rumigny</CityNameSimple><CityNameSoundex>R525</CityNameSoundex><CityZipCode>08290</CityZipCode></GRFCity>
<GRDFCity><CityId>2689</CityId><CityDepartment>08</CityDepartment><CityLatitudeDeg>49.349998474121094</CityLatitudeDeg><CityLongitudeDeg>4.666669845581055</CityLongitudeDeg><CityNameFull>Sugny</CityNameFull><CityNameSimple>sugny</CityNameSimple><CityNameSoundex>S500</CityNameSoundex><CityZipCode>08400</CityZipCode></GRFCity>
<GRDFCity><CityId>2690</CityId><CityDepartment>08</CityDepartment><CityLatitudeDeg>49.56669998168945</CityLatitudeDeg><CityLongitudeDeg>4.650000095367432</CityLongitudeDeg><CityNameFull>Jonval</CityNameFull><CityNameSimple>jonval</CityNameSimple><CityNameSoundex>J514</CityNameSoundex><CityZipCode>08130</CityZipCode></GRFCity>
<GRDFCity><CityId>2435</CityId><CityDepartment>08</CityDepartment><CityLatitudeDeg>49.70000076293945</CityLatitudeDeg><CityLongitudeDeg>4.766670227050781</CityLongitudeDeg><CityNameFull>Ayvelles</CityNameFull><CityNameSimple>les ayvelles</CityNameSimple><CityNameSoundex>L2142</CityNameSoundex><CityZipCode>08000</CityZipCode></GRFCity>
<GRDFCity><CityId>2691</CityId><CityDepartment>08</CityDepartment><CityLatitudeDeg>49.83330154418945</CityLatitudeDeg><CityLongitudeDeg>4.550000190734863</CityLongitudeDeg><CityNameFull>Rimogne</CityNameFull><CityNameSimple>rimogne</CityNameSimple><CityNameSoundex>R525</CityNameSoundex><CityZipCode>08150</CityZipCode></GRFCity>
<GRDFCity><CityId>2436</CityId><CityDepartment>08</CityDepartment><CityLatitudeDeg>49.43330001831055</CityLatitudeDeg><CityLongitudeDeg>5.050000190734863</CityLongitudeDeg><CityNameFull>Nouart</CityNameFull><CityNameSimple>nouart</CityNameSimple><CityNameSoundex>N630</CityNameSoundex><CityZipCode>08240</CityZipCode></GRFCity>
<GRDFCity><CityId>2692</CityId><CityDepartment>08</CityDepartment><CityLatitudeDeg>49.71670150756836</CityLatitudeDeg><CityLongitudeDeg>4.300000190734863</CityLongitudeDeg><CityNameFull>Saint-Jean-aux-Bois</CityNameFull><CityNameSimple>saint jean aux bois</CityNameSimple><CityNameSoundex>S5325212</CityNameSoundex><CityZipCode>08220</CityZipCode></GRFCity>
<GRDFCity><CityId>2437</CityId><CityDepartment>08</CityDepartment><CityLatitudeDeg>49.39619827270508</CityLatitudeDeg><CityLongitudeDeg>5.005559921264648</CityLongitudeDeg><CityNameFull>Bayonville</CityNameFull><CityNameSimple>bayonville</CityNameSimple><CityNameSoundex>B514</CityNameSoundex><CityZipCode>08240</CityZipCode></GRFCity>
<GRDFCity><CityId>2693</CityId><CityDepartment>08</CityDepartment><CityLatitudeDeg>49.29999923706055</CityLatitudeDeg><CityLongitudeDeg>4.433330059051514</CityLongitudeDeg><CityNameFull>Saint-Clément-à-Arnes</CityNameFull><CityNameSimple>saint clement a arnes</CityNameSimple><CityNameSoundex>S532453652</CityNameSoundex><CityZipCode>08310</CityZipCode></GRFCity>
<GRDFCity><CityId>2438</CityId><CityDepartment>08</CityDepartment><CityLatitudeDeg>49.849998474121094</CityLatitudeDeg><CityLongitudeDeg>4.5</CityLongitudeDeg><CityNameFull>Tremblois-lès-Rocroi</CityNameFull><CityNameSimple>tremblois les rocroi</CityNameSimple><CityNameSoundex>T6514242626</CityNameSoundex><CityZipCode>08150</CityZipCode></GRFCity>
<GRDFCity><CityId>2694</CityId><CityDepartment>08</CityDepartment><CityLatitudeDeg>49.66669845581055</CityLatitudeDeg><CityLongitudeDeg>5.166669845581055</CityLongitudeDeg><CityNameFull>Pure</CityNameFull><CityNameSimple>pure</CityNameSimple><CityNameSoundex>P600</CityNameSoundex><CityZipCode>08110</CityZipCode></GRFCity>
<GRDFCity><CityId>2439</CityId><CityDepartment>08</CityDepartment><CityLatitudeDeg>49.66669845581055</CityLatitudeDeg><CityLongitudeDeg>4.833330154418945</CityLongitudeDeg><CityNameFull>Hannogne-Saint-Martin</CityNameFull><CityNameSimple>hannogne saint martin</CityNameSimple><CityNameSoundex>H5252535635</CityNameSoundex><CityZipCode>08160</CityZipCode></GRFCity>
<GRDFCity><CityId>2695</CityId><CityDepartment>08</CityDepartment><CityLatitudeDeg>49.53329849243164</CityLatitudeDeg><CityLongitudeDeg>4.466670036315918</CityLongitudeDeg><CityNameFull>Lucquy</CityNameFull><CityNameSimple>lucquy</CityNameSimple><CityNameSoundex>L200</CityNameSoundex><CityZipCode>08300</CityZipCode></GRFCity>
<GRDFCity><CityId>2440</CityId><CityDepartment>08</CityDepartment><CityLatitudeDeg>49.53329849243164</CityLatitudeDeg><CityLongitudeDeg>4.699999809265137</CityLongitudeDeg><CityNameFull>Lametz</CityNameFull><CityNameSimple>lametz</CityNameSimple><CityNameSoundex>L532</CityNameSoundex><CityZipCode>08130</CityZipCode></GRFCity>
<GRDFCity><CityId>2696</CityId><CityDepartment>08</CityDepartment><CityLatitudeDeg>49.86669921875</CityLatitudeDeg><CityLongitudeDeg>4.433330059051514</CityLongitudeDeg><CityNameFull>Maubert-Fontaine</CityNameFull><CityNameSimple>maubert fontaine</CityNameSimple><CityNameSoundex>M1631535</CityNameSoundex><CityZipCode>08260</CityZipCode></GRFCity>
<GRDFCity><CityId>2441</CityId><CityDepartment>08</CityDepartment><CityLatitudeDeg>49.5</CityLatitudeDeg><CityLongitudeDeg>4.36667013168335</CityLongitudeDeg><CityNameFull>Sault-lès-Rethel</CityNameFull><CityNameSimple>sault les rethel</CityNameSimple><CityNameSoundex>S4342634</CityNameSoundex><CityZipCode>08300</CityZipCode></GRFCity>
<GRDFCity><CityId>2697</CityId><CityDepartment>08</CityDepartment><CityLatitudeDeg>49.65060043334961</CityLatitudeDeg><CityLongitudeDeg>5.231949806213379</CityLongitudeDeg><CityNameFull>Deux-Villes</CityNameFull><CityNameSimple>les deux villes</CityNameSimple><CityNameSoundex>L232142</CityNameSoundex><CityZipCode>08110</CityZipCode></GRFCity>
<GRDFCity><CityId>2442</CityId><CityDepartment>08</CityDepartment><CityLatitudeDeg>49.650001525878906</CityLatitudeDeg><CityLongitudeDeg>5</CityLongitudeDeg><CityNameFull>Remilly-Aillicourt</CityNameFull><CityNameSimple>remilly aillicourt</CityNameSimple><CityNameSoundex>R54263</CityNameSoundex><CityZipCode>08450</CityZipCode></GRFCity>
<GRDFCity><CityId>2698</CityId><CityDepartment>08</CityDepartment><CityLatitudeDeg>49.43330001831055</CityLatitudeDeg><CityLongitudeDeg>4.88332986831665</CityLongitudeDeg><CityNameFull>Germont</CityNameFull><CityNameSimple>germont</CityNameSimple><CityNameSoundex>G653</CityNameSoundex><CityZipCode>08240</CityZipCode></GRFCity>
<GRDFCity><CityId>2443</CityId><CityDepartment>08</CityDepartment><CityLatitudeDeg>49.83330154418945</CityLatitudeDeg><CityLongitudeDeg>4.333330154418945</CityLongitudeDeg><CityNameFull>Champlin</CityNameFull><CityNameSimple>champlin</CityNameSimple><CityNameSoundex>C5145</CityNameSoundex><CityZipCode>08260</CityZipCode></GRFCity>
<GRDFCity><CityId>2699</CityId><CityDepartment>08</CityDepartment><CityLatitudeDeg>49.36669921875</CityLatitudeDeg><CityLongitudeDeg>4.983329772949219</CityLongitudeDeg><CityNameFull>Imécourt</CityNameFull><CityNameSimple>imecourt</CityNameSimple><CityNameSoundex>I5263</CityNameSoundex><CityZipCode>08240</CityZipCode></GRFCity>
<GRDFCity><CityId>2444</CityId><CityDepartment>08</CityDepartment><CityLatitudeDeg>49.93330001831055</CityLatitudeDeg><CityLongitudeDeg>4.300000190734863</CityLongitudeDeg><CityNameFull>Brognon</CityNameFull><CityNameSimple>brognon</CityNameSimple><CityNameSoundex>B625</CityNameSoundex><CityZipCode>08380</CityZipCode></GRFCity>
<GRDFCity><CityId>2700</CityId><CityDepartment>08</CityDepartment><CityLatitudeDeg>49.349998474121094</CityLatitudeDeg><CityLongitudeDeg>4.733329772949219</CityLongitudeDeg><CityNameFull>Savigny-sur-Aisne</CityNameFull><CityNameSimple>savigny sur aisne</CityNameSimple><CityNameSoundex>S1252625</CityNameSoundex><CityZipCode>08400</CityZipCode></GRFCity>
<GRDFCity><CityId>2445</CityId><CityDepartment>08</CityDepartment><CityLatitudeDeg>49.75</CityLatitudeDeg><CityLongitudeDeg>4.61667013168335</CityLongitudeDeg><CityNameFull>This</CityNameFull><CityNameSimple>this</CityNameSimple><CityNameSoundex>T200</CityNameSoundex><CityZipCode>08090</CityZipCode></GRFCity>
<GRDFCity><CityId>2701</CityId><CityDepartment>08</CityDepartment><CityLatitudeDeg>49.483299255371094</CityLatitudeDeg><CityLongitudeDeg>4.38332986831665</CityLongitudeDeg><CityNameFull>Biermes</CityNameFull><CityNameSimple>biermes</CityNameSimple><CityNameSoundex>B652</CityNameSoundex><CityZipCode>08300</CityZipCode></GRFCity>
<GRDFCity><CityId>2446</CityId><CityDepartment>08</CityDepartment><CityLatitudeDeg>49.93330001831055</CityLatitudeDeg><CityLongitudeDeg>4.683330059051514</CityLongitudeDeg><CityNameFull>Anchamps</CityNameFull><CityNameSimple>anchamps</CityNameSimple><CityNameSoundex>A52512</CityNameSoundex><CityZipCode>08500</CityZipCode></GRFCity>
<GRDFCity><CityId>2702</CityId><CityDepartment>08</CityDepartment><CityLatitudeDeg>49.5</CityLatitudeDeg><CityLongitudeDeg>4.599999904632568</CityLongitudeDeg><CityNameFull>Charbogne</CityNameFull><CityNameSimple>charbogne</CityNameSimple><CityNameSoundex>C6125</CityNameSoundex><CityZipCode>08130</CityZipCode></GRFCity>
<GRDFCity><CityId>2447</CityId><CityDepartment>08</CityDepartment><CityLatitudeDeg>49.79999923706055</CityLatitudeDeg><CityLongitudeDeg>4.425000190734863</CityLongitudeDeg><CityNameFull>Cernion</CityNameFull><CityNameSimple>cernion</CityNameSimple><CityNameSoundex>C650</CityNameSoundex><CityZipCode>08260</CityZipCode></GRFCity>
<GRDFCity><CityId>2703</CityId><CityDepartment>08</CityDepartment><CityLatitudeDeg>49.983299255371094</CityLatitudeDeg><CityLongitudeDeg>4.699999809265137</CityLongitudeDeg><CityNameFull>Fumay</CityNameFull><CityNameSimple>fumay</CityNameSimple><CityNameSoundex>F500</CityNameSoundex><CityZipCode>08170</CityZipCode></GRFCity>
<GRDFCity><CityId>2448</CityId><CityDepartment>08</CityDepartment><CityLatitudeDeg>49.516700744628906</CityLatitudeDeg><CityLongitudeDeg>4.833330154418945</CityLongitudeDeg><CityNameFull>Tannay</CityNameFull><CityNameSimple>tannay</CityNameSimple><CityNameSoundex>T500</CityNameSoundex><CityZipCode>08390</CityZipCode></GRFCity>
<GRDFCity><CityId>2704</CityId><CityDepartment>08</CityDepartment><CityLatitudeDeg>49.349998474121094</CityLatitudeDeg><CityLongitudeDeg>4.316669940948486</CityLongitudeDeg><CityNameFull>Aussonce</CityNameFull><CityNameSimple>aussonce</CityNameSimple><CityNameSoundex>A252</CityNameSoundex><CityZipCode>08310</CityZipCode></GRFCity>
<GRDFCity><CityId>2449</CityId><CityDepartment>08</CityDepartment><CityLatitudeDeg>50.108299255371094</CityLatitudeDeg><CityLongitudeDeg>4.783329963684082</CityLongitudeDeg><CityNameFull>Rancennes</CityNameFull><CityNameSimple>rancennes</CityNameSimple><CityNameSoundex>R5252</CityNameSoundex><CityZipCode>08600</CityZipCode></GRFCity>
<GRDFCity><CityId>2705</CityId><CityDepartment>08</CityDepartment><CityLatitudeDeg>50.08330154418945</CityLatitudeDeg><CityLongitudeDeg>4.828639984130859</CityLongitudeDeg><CityNameFull>Landrichamps</CityNameFull><CityNameSimple>landrichamps</CityNameSimple><CityNameSoundex>L5362512</CityNameSoundex><CityZipCode>08600</CityZipCode></GRFCity>
<GRDFCity><CityId>2450</CityId><CityDepartment>08</CityDepartment><CityLatitudeDeg>49.483299255371094</CityLatitudeDeg><CityLongitudeDeg>4.416669845581055</CityLongitudeDeg><CityNameFull>Thugny-Trugny</CityNameFull><CityNameSimple>thugny trugny</CityNameSimple><CityNameSoundex>T253625</CityNameSoundex><CityZipCode>08300</CityZipCode></GRFCity>
<GRDFCity><CityId>2706</CityId><CityDepartment>08</CityDepartment><CityLatitudeDeg>49.66669845581055</CityLatitudeDeg><CityLongitudeDeg>5.199999809265137</CityLongitudeDeg><CityNameFull>Matton-et-Clémency</CityNameFull><CityNameSimple>matton et clemency</CityNameSimple><CityNameSoundex>M3532452</CityNameSoundex><CityZipCode>08110</CityZipCode></GRFCity>
<GRDFCity><CityId>2451</CityId><CityDepartment>08</CityDepartment><CityLatitudeDeg>49.266700744628906</CityLatitudeDeg><CityLongitudeDeg>4.88332986831665</CityLongitudeDeg><CityNameFull>Lançon</CityNameFull><CityNameSimple>lancon</CityNameSimple><CityNameSoundex>L525</CityNameSoundex><CityZipCode>08250</CityZipCode></GRFCity>
<GRDFCity><CityId>2707</CityId><CityDepartment>08</CityDepartment><CityLatitudeDeg>49.849998474121094</CityLatitudeDeg><CityLongitudeDeg>4.433330059051514</CityLongitudeDeg><CityNameFull>Étalle</CityNameFull><CityNameSimple>etalle</CityNameSimple><CityNameSoundex>E340</CityNameSoundex><CityZipCode>08260</CityZipCode></GRFCity>
<GRDFCity><CityId>2452</CityId><CityDepartment>08</CityDepartment><CityLatitudeDeg>50.11669921875</CityLatitudeDeg><CityLongitudeDeg>4.783329963684082</CityLongitudeDeg><CityNameFull>Ham-sur-Meuse</CityNameFull><CityNameSimple>ham sur meuse</CityNameSimple><CityNameSoundex>H52652</CityNameSoundex><CityZipCode>08600</CityZipCode></GRFCity>
<GRDFCity><CityId>2708</CityId><CityDepartment>08</CityDepartment><CityLatitudeDeg>49.400001525878906</CityLatitudeDeg><CityLongitudeDeg>4.88332986831665</CityLongitudeDeg><CityNameFull>Briquenay</CityNameFull><CityNameSimple>briquenay</CityNameSimple><CityNameSoundex>B625</CityNameSoundex><CityZipCode>08240</CityZipCode></GRFCity>
<GRDFCity><CityId>2453</CityId><CityDepartment>08</CityDepartment><CityLatitudeDeg>49.5</CityLatitudeDeg><CityLongitudeDeg>4.449999809265137</CityLongitudeDeg><CityNameFull>Coucy</CityNameFull><CityNameSimple>coucy</CityNameSimple><CityNameSoundex>C000</CityNameSoundex><CityZipCode>08300</CityZipCode></GRFCity>
<GRDFCity><CityId>2709</CityId><CityDepartment>08</CityDepartment><CityLatitudeDeg>49.91669845581055</CityLatitudeDeg><CityLongitudeDeg>4.516670227050781</CityLongitudeDeg><CityNameFull>Rocroi</CityNameFull><CityNameSimple>rocroi</CityNameSimple><CityNameSoundex>R260</CityNameSoundex><CityZipCode>08230</CityZipCode></GRFCity>
<GRDFCity><CityId>2454</CityId><CityDepartment>08</CityDepartment><CityLatitudeDeg>49.78329849243164</CityLatitudeDeg><CityLongitudeDeg>4.61667013168335</CityLongitudeDeg><CityNameFull>Haudrecy</CityNameFull><CityNameSimple>haudrecy</CityNameSimple><CityNameSoundex>H362</CityNameSoundex><CityZipCode>08090</CityZipCode></GRFCity>
<GRDFCity><CityId>2710</CityId><CityDepartment>08</CityDepartment><CityLatitudeDeg>49.61669921875</CityLatitudeDeg><CityLongitudeDeg>4.5</CityLongitudeDeg><CityNameFull>Faissault</CityNameFull><CityNameSimple>faissault</CityNameSimple><CityNameSoundex>F243</CityNameSoundex><CityZipCode>08270</CityZipCode></GRFCity>
<GRDFCity><CityId>2455</CityId><CityDepartment>08</CityDepartment><CityLatitudeDeg>49.45000076293945</CityLatitudeDeg><CityLongitudeDeg>5</CityLongitudeDeg><CityNameFull>Fossé</CityNameFull><CityNameSimple>fosse</CityNameSimple><CityNameSoundex>F200</CityNameSoundex><CityZipCode>08240</CityZipCode></GRFCity>
<GRDFCity><CityId>2711</CityId><CityDepartment>08</CityDepartment><CityLatitudeDeg>49.68330001831055</CityLatitudeDeg><CityLongitudeDeg>4.316669940948486</CityLongitudeDeg><CityNameFull>La Romagne</CityNameFull><CityNameSimple>la romagne</CityNameSimple><CityNameSoundex>L6525</CityNameSoundex><CityZipCode>08220</CityZipCode></GRFCity>
<GRDFCity><CityId>2456</CityId><CityDepartment>08</CityDepartment><CityLatitudeDeg>49.29999923706055</CityLatitudeDeg><CityLongitudeDeg>4.966670036315918</CityLongitudeDeg><CityNameFull>Fléville</CityNameFull><CityNameSimple>fleville</CityNameSimple><CityNameSoundex>F414</CityNameSoundex><CityZipCode>08250</CityZipCode></GRFCity>
<GRDFCity><CityId>2712</CityId><CityDepartment>08</CityDepartment><CityLatitudeDeg>49.31669998168945</CityLatitudeDeg><CityLongitudeDeg>4.833330154418945</CityLongitudeDeg><CityNameFull>Termes</CityNameFull><CityNameSimple>termes</CityNameSimple><CityNameSoundex>T652</CityNameSoundex><CityZipCode>08250</CityZipCode></GRFCity>
<GRDFCity><CityId>2457</CityId><CityDepartment>08</CityDepartment><CityLatitudeDeg>49.5</CityLatitudeDeg><CityLongitudeDeg>4.716670036315918</CityLongitudeDeg><CityNameFull>Montgon</CityNameFull><CityNameSimple>montgon</CityNameSimple><CityNameSoundex>M325</CityNameSoundex><CityZipCode>08390</CityZipCode></GRFCity>
<GRDFCity><CityId>2713</CityId><CityDepartment>08</CityDepartment><CityLatitudeDeg>49.93330001831055</CityLatitudeDeg><CityLongitudeDeg>4.63332986831665</CityLongitudeDeg><CityNameFull>Revin</CityNameFull><CityNameSimple>revin</CityNameSimple><CityNameSoundex>R150</CityNameSoundex><CityZipCode>08500</CityZipCode></GRFCity>
<GRDFCity><CityId>2458</CityId><CityDepartment>08</CityDepartment><CityLatitudeDeg>49.766700744628906</CityLatitudeDeg><CityLongitudeDeg>4.400000095367432</CityLongitudeDeg><CityNameFull>Logny-Bogny</CityNameFull><CityNameSimple>logny bogny</CityNameSimple><CityNameSoundex>L25125</CityNameSoundex><CityZipCode>08150</CityZipCode></GRFCity>
<GRDFCity><CityId>2714</CityId><CityDepartment>08</CityDepartment><CityLatitudeDeg>49.483299255371094</CityLatitudeDeg><CityLongitudeDeg>4.933330059051514</CityLongitudeDeg><CityNameFull>Saint-Pierremont</CityNameFull><CityNameSimple>saint pierremont</CityNameSimple><CityNameSoundex>S531653</CityNameSoundex><CityZipCode>08240</CityZipCode></GRFCity>
<GRDFCity><CityId>2459</CityId><CityDepartment>08</CityDepartment><CityLatitudeDeg>49.6150016784668</CityLatitudeDeg><CityLongitudeDeg>5.351669788360596</CityLongitudeDeg><CityNameFull>Margny</CityNameFull><CityNameSimple>margny</CityNameSimple><CityNameSoundex>M625</CityNameSoundex><CityZipCode>08370</CityZipCode></GRFCity>
<GRDFCity><CityId>2715</CityId><CityDepartment>08</CityDepartment><CityLatitudeDeg>49.75</CityLatitudeDeg><CityLongitudeDeg>4.683330059051514</CityLongitudeDeg><CityNameFull>Prix-lès-Mézières</CityNameFull><CityNameSimple>prix les mezieres</CityNameSimple><CityNameSoundex>P62425262</CityNameSoundex><CityZipCode>08000</CityZipCode></GRFCity>
<GRDFCity><CityId>2460</CityId><CityDepartment>08</CityDepartment><CityLatitudeDeg>49.70000076293945</CityLatitudeDeg><CityLongitudeDeg>4.86667013168335</CityLongitudeDeg><CityNameFull>Donchery</CityNameFull><CityNameSimple>donchery</CityNameSimple><CityNameSoundex>D526</CityNameSoundex><CityZipCode>08350</CityZipCode></GRFCity>
<GRDFCity><CityId>2716</CityId><CityDepartment>08</CityDepartment><CityLatitudeDeg>49.58330154418945</CityLatitudeDeg><CityLongitudeDeg>4.083330154418945</CityLongitudeDeg><CityNameFull>Saint-Quentin-le-Petit</CityNameFull><CityNameSimple>saint quentin le petit</CityNameSimple><CityNameSoundex>S532535413</CityNameSoundex><CityZipCode>08220</CityZipCode></GRFCity>
<GRDFCity><CityId>2461</CityId><CityDepartment>08</CityDepartment><CityLatitudeDeg>49.54999923706055</CityLatitudeDeg><CityLongitudeDeg>4.699999809265137</CityLongitudeDeg><CityNameFull>Marquigny</CityNameFull><CityNameSimple>marquigny</CityNameSimple><CityNameSoundex>M625</CityNameSoundex><CityZipCode>08390</CityZipCode></GRFCity>
<GRDFCity><CityId>2717</CityId><CityDepartment>08</CityDepartment><CityLatitudeDeg>49.66669845581055</CityLatitudeDeg><CityLongitudeDeg>4.466670036315918</CityLongitudeDeg><CityNameFull>Dommery</CityNameFull><CityNameSimple>dommery</CityNameSimple><CityNameSoundex>D560</CityNameSoundex><CityZipCode>08460</CityZipCode></GRFCity>
<GRDFCity><CityId>2462</CityId><CityDepartment>08</CityDepartment><CityLatitudeDeg>49.28329849243164</CityLatitudeDeg><CityLongitudeDeg>4.949999809265137</CityLongitudeDeg><CityNameFull>Chatel-Chéhéry</CityNameFull><CityNameSimple>chatel chehery</CityNameSimple><CityNameSoundex>C3426</CityNameSoundex><CityZipCode>08250</CityZipCode></GRFCity>
<GRDFCity><CityId>2718</CityId><CityDepartment>08</CityDepartment><CityLatitudeDeg>49.516700744628906</CityLatitudeDeg><CityLongitudeDeg>4.36667013168335</CityLongitudeDeg><CityNameFull>Rethel</CityNameFull><CityNameSimple>rethel</CityNameSimple><CityNameSoundex>R340</CityNameSoundex><CityZipCode>08300</CityZipCode></GRFCity>
<GRDFCity><CityId>2463</CityId><CityDepartment>08</CityDepartment><CityLatitudeDeg>49.78329849243164</CityLatitudeDeg><CityLongitudeDeg>4.483329772949219</CityLongitudeDeg><CityNameFull>Rouvroy-sur-Audry</CityNameFull><CityNameSimple>rouvroy sur audry</CityNameSimple><CityNameSoundex>R162636</CityNameSoundex><CityZipCode>08150</CityZipCode></GRFCity>
<GRDFCity><CityId>2719</CityId><CityDepartment>08</CityDepartment><CityLatitudeDeg>49.57699966430664</CityLatitudeDeg><CityLongitudeDeg>4.5630598068237305</CityLongitudeDeg><CityNameFull>Vaux-Montreuil</CityNameFull><CityNameSimple>vaux montreuil</CityNameSimple><CityNameSoundex>V25364</CityNameSoundex><CityZipCode>08270</CityZipCode></GRFCity>
<GRDFCity><CityId>2464</CityId><CityDepartment>08</CityDepartment><CityLatitudeDeg>49.66669845581055</CityLatitudeDeg><CityLongitudeDeg>4.63332986831665</CityLongitudeDeg><CityNameFull>Touligny</CityNameFull><CityNameSimple>touligny</CityNameSimple><CityNameSoundex>T425</CityNameSoundex><CityZipCode>08430</CityZipCode></GRFCity>
<GRDFCity><CityId>2720</CityId><CityDepartment>08</CityDepartment><CityLatitudeDeg>49.733299255371094</CityLatitudeDeg><CityLongitudeDeg>4.849999904632568</CityLongitudeDeg><CityNameFull>Vrigne-aux-Bois</CityNameFull><CityNameSimple>vrigne aux bois</CityNameSimple><CityNameSoundex>V625212</CityNameSoundex><CityZipCode>08330</CityZipCode></GRFCity>
<GRDFCity><CityId>2465</CityId><CityDepartment>08</CityDepartment><CityLatitudeDeg>49.86669921875</CityLatitudeDeg><CityLongitudeDeg>4.349999904632568</CityLongitudeDeg><CityNameFull>Auvillers-les-Forges</CityNameFull><CityNameSimple>auvillers les forges</CityNameSimple><CityNameSoundex>A146242162</CityNameSoundex><CityZipCode>08260</CityZipCode></GRFCity>
<GRDFCity><CityId>2721</CityId><CityDepartment>08</CityDepartment><CityLatitudeDeg>49.70000076293945</CityLatitudeDeg><CityLongitudeDeg>5.050000190734863</CityLongitudeDeg><CityNameFull>Francheval</CityNameFull><CityNameSimple>francheval</CityNameSimple><CityNameSoundex>F65214</CityNameSoundex><CityZipCode>08140</CityZipCode></GRFCity>
<GRDFCity><CityId>2466</CityId><CityDepartment>08</CityDepartment><CityLatitudeDeg>49.400001525878906</CityLatitudeDeg><CityLongitudeDeg>4.61667013168335</CityLongitudeDeg><CityNameFull>Tourcelles-Chaumont</CityNameFull><CityNameSimple>tourcelles chaumont</CityNameSimple><CityNameSoundex>T624253</CityNameSoundex><CityZipCode>08400</CityZipCode></GRFCity>
<GRDFCity><CityId>2722</CityId><CityDepartment>08</CityDepartment><CityLatitudeDeg>49.75</CityLatitudeDeg><CityLongitudeDeg>4.966670036315918</CityLongitudeDeg><CityNameFull>Illy</CityNameFull><CityNameSimple>illy</CityNameSimple><CityNameSoundex>I400</CityNameSoundex><CityZipCode>08200</CityZipCode></GRFCity>
<GRDFCity><CityId>2467</CityId><CityDepartment>08</CityDepartment><CityLatitudeDeg>49.45000076293945</CityLatitudeDeg><CityLongitudeDeg>4.699999809265137</CityLongitudeDeg><CityNameFull>Terron-sur-Aisne</CityNameFull><CityNameSimple>terron sur aisne</CityNameSimple><CityNameSoundex>T652625</CityNameSoundex><CityZipCode>08400</CityZipCode></GRFCity>
<GRDFCity><CityId>2723</CityId><CityDepartment>08</CityDepartment><CityLatitudeDeg>50.04999923706055</CityLatitudeDeg><CityLongitudeDeg>4.716670036315918</CityLongitudeDeg><CityNameFull>Montigny-sur-Meuse</CityNameFull><CityNameSimple>montigny sur meuse</CityNameSimple><CityNameSoundex>M3252652</CityNameSoundex><CityZipCode>08170</CityZipCode></GRFCity>
<GRDFCity><CityId>2468</CityId><CityDepartment>08</CityDepartment><CityLatitudeDeg>49.58330154418945</CityLatitudeDeg><CityLongitudeDeg>4.900000095367432</CityLongitudeDeg><CityNameFull>Artaise-le-Vivier</CityNameFull><CityNameSimple>artaise le vivier</CityNameSimple><CityNameSoundex>A632416</CityNameSoundex><CityZipCode>08390</CityZipCode></GRFCity>
<GRDFCity><CityId>2724</CityId><CityDepartment>08</CityDepartment><CityLatitudeDeg>50.125</CityLatitudeDeg><CityLongitudeDeg>4.858329772949219</CityLongitudeDeg><CityNameFull>Fromelennes</CityNameFull><CityNameSimple>fromelennes</CityNameSimple><CityNameSoundex>F65452</CityNameSoundex><CityZipCode>08600</CityZipCode></GRFCity>
<GRDFCity><CityId>2469</CityId><CityDepartment>08</CityDepartment><CityLatitudeDeg>49.83330154418945</CityLatitudeDeg><CityLongitudeDeg>4.766670227050781</CityLongitudeDeg><CityNameFull>Joigny-sur-Meuse</CityNameFull><CityNameSimple>joigny sur meuse</CityNameSimple><CityNameSoundex>J52652</CityNameSoundex><CityZipCode>08700</CityZipCode></GRFCity>
<GRDFCity><CityId>2725</CityId><CityDepartment>08</CityDepartment><CityLatitudeDeg>49.70000076293945</CityLatitudeDeg><CityLongitudeDeg>5.11667013168335</CityLongitudeDeg><CityNameFull>Escombres-et-le-Chesnois</CityNameFull><CityNameSimple>escombres et le chesnois</CityNameSimple><CityNameSoundex>E2516234252</CityNameSoundex><CityZipCode>08110</CityZipCode></GRFCity>
<GRDFCity><CityId>2470</CityId><CityDepartment>08</CityDepartment><CityLatitudeDeg>49.650001525878906</CityLatitudeDeg><CityLongitudeDeg>4.86667013168335</CityLongitudeDeg><CityNameFull>Chéhéry</CityNameFull><CityNameSimple>chehery</CityNameSimple><CityNameSoundex>C600</CityNameSoundex><CityZipCode>08350</CityZipCode></GRFCity>
<GRDFCity><CityId>2726</CityId><CityDepartment>08</CityDepartment><CityLatitudeDeg>49.650001525878906</CityLatitudeDeg><CityLongitudeDeg>4.11667013168335</CityLongitudeDeg><CityNameFull>Renneville</CityNameFull><CityNameSimple>renneville</CityNameSimple><CityNameSoundex>R514</CityNameSoundex><CityZipCode>08220</CityZipCode></GRFCity>
<GRDFCity><CityId>2471</CityId><CityDepartment>08</CityDepartment><CityLatitudeDeg>49.29999923706055</CityLatitudeDeg><CityLongitudeDeg>5</CityLongitudeDeg><CityNameFull>Exermont</CityNameFull><CityNameSimple>exermont</CityNameSimple><CityNameSoundex>E2653</CityNameSoundex><CityZipCode>08250</CityZipCode></GRFCity>
<GRDFCity><CityId>2727</CityId><CityDepartment>08</CityDepartment><CityLatitudeDeg>49.70000076293945</CityLatitudeDeg><CityLongitudeDeg>4.766670227050781</CityLongitudeDeg><CityNameFull>Flize</CityNameFull><CityNameSimple>flize</CityNameSimple><CityNameSoundex>F420</CityNameSoundex><CityZipCode>08160</CityZipCode></GRFCity>
<GRDFCity><CityId>2472</CityId><CityDepartment>08</CityDepartment><CityLatitudeDeg>49.61669921875</CityLatitudeDeg><CityLongitudeDeg>4.300000190734863</CityLongitudeDeg><CityNameFull>Doumely-Bégny</CityNameFull><CityNameSimple>doumely begny</CityNameSimple><CityNameSoundex>D54125</CityNameSoundex><CityZipCode>08220</CityZipCode></GRFCity>
<GRDFCity><CityId>2728</CityId><CityDepartment>08</CityDepartment><CityLatitudeDeg>49.766700744628906</CityLatitudeDeg><CityLongitudeDeg>4.566669940948486</CityLongitudeDeg><CityNameFull>Saint-Marcel</CityNameFull><CityNameSimple>saint marcel</CityNameSimple><CityNameSoundex>S535624</CityNameSoundex><CityZipCode>08560</CityZipCode></GRFCity>
<GRDFCity><CityId>2473</CityId><CityDepartment>08</CityDepartment><CityLatitudeDeg>49.41669845581055</CityLatitudeDeg><CityLongitudeDeg>4.25</CityLongitudeDeg><CityNameFull>Bergnicourt</CityNameFull><CityNameSimple>bergnicourt</CityNameSimple><CityNameSoundex>B625263</CityNameSoundex><CityZipCode>08300</CityZipCode></GRFCity>
<GRDFCity><CityId>2729</CityId><CityDepartment>08</CityDepartment><CityLatitudeDeg>49.71670150756836</CityLatitudeDeg><CityLongitudeDeg>4.599999904632568</CityLongitudeDeg><CityNameFull>Gruyères</CityNameFull><CityNameSimple>gruyeres</CityNameSimple><CityNameSoundex>G620</CityNameSoundex><CityZipCode>08430</CityZipCode></GRFCity>
<GRDFCity><CityId>2474</CityId><CityDepartment>08</CityDepartment><CityLatitudeDeg>49.599998474121094</CityLatitudeDeg><CityLongitudeDeg>5.13332986831665</CityLongitudeDeg><CityNameFull>Vaux-lès-Mouzon</CityNameFull><CityNameSimple>vaux les mouzon</CityNameSimple><CityNameSoundex>V242525</CityNameSoundex><CityZipCode>08210</CityZipCode></GRFCity>
<GRDFCity><CityId>2730</CityId><CityDepartment>08</CityDepartment><CityLatitudeDeg>49.650001525878906</CityLatitudeDeg><CityLongitudeDeg>4.75</CityLongitudeDeg><CityNameFull>Élan</CityNameFull><CityNameSimple>elan</CityNameSimple><CityNameSoundex>E450</CityNameSoundex><CityZipCode>08160</CityZipCode></GRFCity>
<GRDFCity><CityId>2475</CityId><CityDepartment>08</CityDepartment><CityLatitudeDeg>49.38330078125</CityLatitudeDeg><CityLongitudeDeg>4.933330059051514</CityLongitudeDeg><CityNameFull>Verpel</CityNameFull><CityNameSimple>verpel</CityNameSimple><CityNameSoundex>V614</CityNameSoundex><CityZipCode>08240</CityZipCode></GRFCity>
<GRDFCity><CityId>2731</CityId><CityDepartment>08</CityDepartment><CityLatitudeDeg>49.900001525878906</CityLatitudeDeg><CityLongitudeDeg>4.683330059051514</CityLongitudeDeg><CityNameFull>Laifour</CityNameFull><CityNameSimple>laifour</CityNameSimple><CityNameSoundex>L160</CityNameSoundex><CityZipCode>08800</CityZipCode></GRFCity>
<GRDFCity><CityId>2476</CityId><CityDepartment>08</CityDepartment><CityLatitudeDeg>49.63330078125</CityLatitudeDeg><CityLongitudeDeg>4.983329772949219</CityLongitudeDeg><CityNameFull>Angecourt</CityNameFull><CityNameSimple>angecourt</CityNameSimple><CityNameSoundex>A5263</CityNameSoundex><CityZipCode>08450</CityZipCode></GRFCity>
